"RESID","SS","PreySS","PredSS","PPratio","ExoticSS","Richness","Evenness","NatStock","Nnatstock","IntrodUndes","Fishkills","FishPres","CatchRate","FishSize","CatchVar","AnglerSatis","FreqTourn","RatioFishing","SPP1comp","LargeFish","StockedFish","PopDen","SizeStruc","Condition","GRate","NatMort","R_age1","R_adult","CRA","BAS","PIK","PER","CAT","SUN","MOR","TRT","SAL","STATE","RESINFO","RESNAME1","LONGITUDE","LATITUDE","CLUSID"
"AL12",4,3,4,3,2,3,3,1,1,1,1,5,4,4,3,3,5,3,3,3,1,4,3,3,3,3,3,3,0,1,0,0,0,0,0,0,0,"AL",12,"Guntersville Reservoir",-86.39333,34.42167,"SAP                1"
"AL13",3,4,3,3,1,3,3,3,1,1,2,4,3,3,2,3,4,3,3,3,1,3,3,4,4,3,3,3,0,1,0,0,0,0,0,0,0,"AL",13,"Neely Henry",-86.0533,33.7833,"SAP                1"
"AL14",2,2,2,3,1,3,3,3,1,1,1,3,2,2,3,2,3,3,1,1,1,2,3,3,3,3,2,2,0,1,0,0,0,0,0,0,0,"AL",14,"Holt Reservoir",-87.45,33.25333,"SAP                1"
"AL15",3,3,3,3,1,3,3,3,1,1,1,3,4,4,3,3,3,4,2,2,1,4,4,4,4,3,3,3,1,0,0,0,0,0,0,0,0,"AL",15,"Gainesville Reservoir",-88.16667,32.83333,"CPL                3"
"AL16",3,3,3,3,1,3,3,3,3,1,1,3,3,3,3,3,4,3,1,1,1,3,3,3,3,3,2,2,0,1,0,0,0,0,0,0,0,"AL",16,"Bankhead Lake",-87.355,33.45667,"SAP                1"
"AL17",4,4,3,4,2,4,4,2,1,1,3,4,4,4,3,4,5,4,3,3,1,4,5,5,5,3,2,2,0,1,0,0,0,0,0,0,0,"AL",17,"Lake Jordan",-86.2583,32.6187,"SAP                1"
"AL18",3,3,3,4,2,2,2,3,2,2,2,4,3,3,3,4,3,2,3,3,1,3,3,3,3,3,3,3,0,1,0,0,0,0,0,0,0,"AL",18,"Lake Tholocco",-85.72167,31.385,"CPL                4"
"AL19",4,4,4,4,2,3,3,4,2,2,3,4,4,3,3,4,4,3,3,2,2,4,3,4,3,3,4,4,0,1,0,0,0,0,0,0,0,"AL",19,"Lay",-86.5171,32.9637,"SAP                4"
"AL2",3,3,3,3,1,3,3,3,3,1,1,3,3,3,1,4,3,3,1,2,1,3,3,3,3,3,3,3,0,1,0,0,0,0,0,0,0,"AL",2,"Warrior Reservoir",-87.84167,32.77833,"CPL                3"
"AL20",2,2,2,3,1,3,3,3,1,1,1,3,3,3,3,3,3,3,1,1,1,2,2,3,3,3,3,3,0,1,0,0,0,0,0,0,0,"AL",20,"Smith Lake",-87.1083,33.9417,"SAP                1"
"AL21",3,3,3,3,2,3,3,3,1,1,1,3,3,3,3,3,3,4,2,2,1,3,3,3,3,3,3,3,0,1,0,0,0,0,0,0,0,"AL",21,"Little Bear Creek Reservoir",-87.982,34.455,"CPL                1"
"AL22",3,3,3,3,4,3,3,4,1,4,3,3,3,3,3,3,4,3,3,2,1,3,3,4,4,3,3,3,0,1,0,0,0,0,0,0,0,"AL",22,"Logan Martin",-86.3383,33.4267,"SAP                1"
"AL23",3,3,3,3,2,3,3,4,2,2,2,4,3,3,4,3,4,3,3,2,1,4,3,3,2,3,3,3,0,1,0,0,0,0,0,0,0,"AL",23,"Lake Martin",-85.9117,32.68,"SAP                1"
"AL24",4,4,4,4,3,4,4,1,1,3,1,4,4,4,2,4,4,4,2,2,1,3,4,4,3,3,3,4,0,1,0,0,0,0,0,0,0,"AL",24,"Millers Ferry",-87.4,32.10167,"CPL                4"
"AL25",4,4,3,3,2,3,3,2,2,1,3,4,3,4,4,3,4,4,2,3,1,4,4,4,4,3,2,2,0,1,0,0,0,0,0,0,0,"AL",25,"Lake Mitchell",-86.4467,32.805,"SAP                1"
"AL27",3,3,3,3,2,4,3,4,2,3,4,3,3,3,3,4,3,3,4,3,1,3,3,2,2,3,3,3,0,1,0,0,0,0,0,0,0,"AL",27,"Point A Reservoir",-86.5184,31.361,"CPL                4"
"AL29",3,3,3,2.5,1,3,3,2,2,2,2,3,3,3,4,3,4,3,2,3,1,3,4,3,3,3,3,3,0,1,0,0,0,0,0,0,0,"AL",29,"Harris",-85.613,33.2585,"SAP                1"
"AL3",3,3,3,3,2,2,3,3,1,1,1,2,3,3,3,3,2,4,2,3,1,3,3,3,3,3,3,3,0,1,0,0,0,0,0,0,0,"AL",3,"Bear Creek Reservoir",-87.98833,34.39667,"CPL                1"
"AL32",3,3,3,3,3,3,3,1,3,3,3,4,4,2,3,3,4,4,3,3,1,4,3,4,3,3,3,4,0,1,0,0,0,0,0,0,0,"AL",32,"Jones Bluff",-86.78333,32.32333,"CPL                4"
"AL33",2,1,2,2,1,2,3,3,1,1,2,1,1,2,3,3,1,4,1,2,1,2,2,1,1,3,4,4,0,1,0,0,0,0,0,0,0,"AL",33,"Thurlow",-85.8883,32.535,"CPL                1"
"AL34",3,4,4,4,1,3,3,1,1,1,1,4,3,3,3,3,4,4,2,2,1,3,3,3,3,3,3,3,1,0,0,0,0,0,0,0,0,"AL",34,"Aliceville lake",-85.36489,31.14739,"CPL                3"
"AL35",3,3,3,3,2,3,3,1,1,1,1,3,3,4,3,3,3,4,3,3,1,3,4,3,3,3,3,3,0,1,0,0,0,0,0,0,0,"AL",35,"Upper Bear Creek Reservoir",-87.695,34.27167,"SAP                1"
"AL37",5,4,4,4,3,3,3,2,4,3,2,4,4,4,3,3,5,3,4,3,1,4,4,4,4,3,3,3,0,1,0,0,0,0,0,0,0,"AL",37,"Lake Eufaula",-85.06333,31.62667,"CPL                4"
"AL39",4,4,4,5,2,3,3,3,2,2,2,4,4,3,3,4,4,4,3,3,1,4,4,4,3,3,3,3,1,0,0,0,0,0,0,0,0,"AL",39,"Weiss",-85.7539,34.1721,"SAP                3"
"AL4",3,3,3,3,1,2,3,1,1,1,1,3,3,3,3,3,3,4,3,2,1,3,3,3,3,3,3,3,0,1,0,0,0,0,0,0,0,"AL",4,"Cedar Creek Reservoir",-87.975,34.545,"CPL                1"
"AL45",2,3,3,3,2,3,3,1,1,1,1,2,2,2,3,3,1,4,1,1,1,2,2,3,3,3,2,2,0,1,0,0,0,0,0,0,0,"AL",45,"Oliver pool",-87.59278,33.20636,"CPL                3"
"AL46",3,3,3,3,2,3,3,1,1,1,1,3,3,3,3,3,4,3,3,3,1,3,3,4,4,3,3,3,0,1,0,0,0,0,0,0,0,"AL",46,"Wilson Reservoir",-87.625,34.795,"SAP                1"
"AL47",2,1,2,2,1,2,2,3,1,1,2,1,2,2,3,3,1,4,2,1,1,1,2,2,1,2,4,4,0,1,0,0,0,0,0,0,0,"AL",47,"Yates",-85.8893,32.5744,"SAP                1"
"AL48",2,2,2,3,1,2,2,1,2,1,1,4,3,2,3,2,3,4,3,2,1,2,3,2,2,3,2,3,0,1,0,0,0,0,0,0,0,"AL",48,"Big Creek Lake",-88.340778,30.717341,"CPL                3"
"AL6",3,3,3,3,4,4,3,3,1,3,2,2,3,3,3,3,1,3,1,2,1,3,4,3,3,3,3,4,0,1,0,0,0,0,0,0,0,"AL",6,"Claiborne Lake",-87.55,31.615,"CPL                4"
"AL7",3,4,3,4,3,4,3,3,1,3,1,2,3,3,3,2,1,3,2,1,1,3,3,3,3,3,3,3,0,1,0,0,0,0,0,0,0,"AL",7,"Coffeeville",-88.12833,31.75667,"CPL                4"
"AL8",4,4,4,3,2,4,3,3,1,1,1,3,4,3,3,4,4,4,1,2,1,4,3,4,4,3,3,4,0,1,0,0,0,0,0,0,0,"AL",8,"Demopolis Reservoir",-87.88,32.52,"CPL                3"
"AL9",2,3,2,4,3,4,3,3,2,3,1,3,2,2,3,3,2,2,2,2,1,2,2,2,2,3,3,3,0,1,0,0,0,0,0,0,0,"AL",9,"Gantt Reservoir",-86.4796,31.4032,"CPL                4"
"AR10",3,4,3,3,4,2,2,3,1,1,1,3,3,3,3,3,2,4,3,3,1,3,2,3,3,3,3,4,1,0,0,0,0,0,0,0,0,"AR",10,"Blue Mountain Lake",-93.64333,35.10167,"SAP                1"
"AR11",4,4,3,3,3,3,3,3,1,1,1,3,3,3,3,3,3,4,2,2,2,3,4,3,3,3,3,3,0,1,0,0,0,0,0,0,0,"AR",11,"Brewer Lake",-92.60528,35.235,"SAP                1"
"AR12",3,3,3,3,4,3,3,3,1,4,2,3,3,3,4,3,3,3,3,3,1,3,3,3,3,3,2,2,0,1,0,0,0,0,0,0,0,"AR",12,"Bull Shoals",-92.57333,36.36333,"SAP                1"
"AR13",3,3,3,2,3,3,3,2,3,1,1,3,3,3,3,2,3,5,3,2,1,3,3,3,3,3,3,3,1,0,0,0,0,0,0,0,0,"AR",13,"Cane Creek Lake",-91.76889,33.93333,"CPL                3"
"AR14",3,4,3,3,3,3,3,4,4,4,1,3,4,3,3,4,4,2,2,2,1,4,3,3,3,3,4,4,0,1,0,0,0,0,0,0,0,"AR",14,"Lake Hamilton",-93.0265,34.4428,"SAP                1"
"AR15",3,4,3,4,2,4,3,2,2,3,3,2,3,3,4,2,2,4,2,1,1,3,3,4,4,3,3,3,0,1,0,0,0,0,0,0,0,"AR",15,"Pool 5 - Arkansas River",-92.10333,34.41167,"CPL                4"
"AR16",3,3,3,3,1,3,2,3,1,1,1,4,3,3,2,3,1,5,2,2,1,3,3,4,4,4,4,4,1,0,0,0,0,0,0,0,0,"AR",16,"Cox Creek Lake",-92.62167,34.17694,"CPL                3"
"AR18",4,4,4,3,3,4,3,2,1,4,2,4,4,4,2,3,5,4,2,3,1,4,4,4,3,3,2,3,0,1,0,0,0,0,0,0,0,"AR",18,"Dardanelle Lake",-93.16667,35.25,"SAP                3"
"AR19",4,4,4,4,3,4,2,2,2,4,3,3,2,2,4,2,3,4,2,1,1,4,3,4,4,3,3,3,0,1,0,0,0,0,0,0,0,"AR",19,"Pool 6/Little Rock Pool Arkansas River",-92.155,34.66667,"CPL                4"
"AR2",4,4,4,3,3,4,3,1,1,4,1,2,4,3,2,3,2,5,3,3,1,4,3,4,3,4,4,4,0,0,0,0,1,0,0,0,0,"AR",2,"Pool 9 Rockefeller Lake",-92.78667,35.125,"SAP                3"
"AR20",4,4,4,4,2,3,3,3,4,2,1,3,4,4,3,4,4,4,2,3,1,4,4,3,3,3,3,3,0,1,0,0,0,0,0,0,0,"AR",20,"DeGray Lake",-93.11,34.22,"SAP                1"
"AR21",3,3,2,3,2,3,3,3,2,2,2,3,3,3,2,2,2,5,2,2,1,2,3,3,3,2,3,3,0,1,0,0,0,0,0,0,0,"AR",21,"DeGray Reregulation Lake",-93.10333,34.23861,"SAP                3"
"AR23",3,4,3,3,4,4,3,4,3,4,2,3,3,3,3,4,4,4,2,2,1,3,3,3,3,2,4,3,0,1,0,0,0,0,0,0,0,"AR",23,"DeQueen",-94.38167,34.09833,"SAP                1"
"AR28",3,3,3,3,4,3,3,2,1,1,1,3,3,3,3,4,3,4,2,2,1,3,3,3,3,2,4,3,0,1,0,0,0,0,0,0,0,"AR",28,"Dierks",-94.1,34.145,"SAP                1"
"AR29",3,3,3,3,3,3,3,2,1,3,1,4,3,3,3,3,4,4,2,2,1,3,3,3,3,3,3,3,0,1,0,0,0,0,0,0,0,"AR",29,"Arkansas River Pool 4",-91.90333,34.24833,"CPL                4"
"AR3",3,3,2,3,4,3,3,3,1,2,1,4,3,3,3,2,2,4,2,1,1,2,2,3,3,3,4,3,0,1,0,0,0,0,0,0,0,"AR",3,"Lake Balboa",-92.89722,34.62639,"SAP                1"
"AR30",4,3,3,3,4,5,4,2,5,1,4,4,3,2,3,3,4,5,1,2,1,2,2,3,3,4,3,3,0,1,0,0,0,0,0,0,0,"AR",30,"Felsenthal",-92.11833,33.05333,"CPL                3"
"AR31",3,3,3,4,1,3,3,3,1,1,1,3,3,3,3,3,3,3,2,1,1,3,3,3,3,3,3,3,0,0,0,0,0,1,0,0,0,"AR",31,"Lake Charles",-91.13805,36.06361,"SAP                4"
"AR34",4,4,4,4,2,3,3,3,3,1,1,4,3,3,3,3,5,3,2,1,1,3,3,2,3,3,3,3,0,1,0,0,0,0,0,0,0,"AR",34,"Greers Ferry Lake",-92,35.525,"SAP                1"
"AR38",3,3,3,3,1,3,3,3,1,1,1,4,4,3,3,3,3,4,2,2,1,4,3,3,3,3,3,3,1,0,0,0,0,0,0,0,0,"AR",38,"Harris Brake Lake",-92.775,34.98667,"SAP                1"
"AR4",3,3,3,3,1,3,3,3,1,1,1,3,3,3,3,4,2,4,1,2,1,3,4,3,3,3,4,4,0,1,0,0,0,0,0,0,0,"AR",4,"bear creek lake",-90.695,34.70833,"CPL                1"
"AR40",3,3,3,3,1,3,3,3,1,1,1,2,2,3,3,3,1,5,3,2,2,3,3,3,3,3,3,3,0,1,0,0,0,0,0,0,0,"AR",40,"Huckleberry Lake",-93.19028,35.37222,"SAP                1"
"AR41",4,3,4,3,2,3,3,2,1,1,1,3,4,4,3,4,3,5,2,3,1,4,4,3,3,3,4,4,0,1,0,0,0,0,0,0,0,"AR",41,"Hurricane Lake",-92.52972,34.61666,"SAP                1"
"AR42",4,3,3,3,2,3,2,1,1,1,1,4,3,3,3,3,4,3,2,2,1,3,3,3,3,3,3,3,0,1,0,0,0,0,0,0,0,"AR",42,"Arkansas River, Pool 13",-94.29167,35.35,"SAP                1"
"AR43",3,3,3,3,3,3,3,2,1,3,2,3,3,3,3,3,3,3,2,2,1,3,3,3,3,3,3,3,0,1,0,0,0,0,0,0,0,"AR",43,"Arkansas River Pool 3",-91.67833,34.165,"CPL                4"
"AR44",4,4,4,4,2,3,2,3,1,1,1,4,4,4,3,3,4,5,3,2,2,4,4,4,4,3,4,4,0,1,0,0,0,0,0,0,0,"AR",44,"Lake Atkins",-92.94,35.21583,"SAP                1"
"AR45",3,3,3,3,1,3,3,2,1,3,2,3,3,3,3,3,1,5,2,2,1,3,3,3,3,3,3,3,1,0,0,0,0,0,0,0,0,"AR",45,"Calion Lake",-92.52834,33.325,"CPL                3"
"AR46",3,3,2,3,3,3,3,4,4,3,1,3,3,4,3,3,4,5,1,2,1,2,4,4,3,3,3,3,0,1,0,0,0,0,0,0,0,"AR",46,"Lake Columbia",-93.40639,33.28806,"CPL                3"
"AR47",3,3,3,2,1,3,3,2,1,1,1,3,3,2,4,3,2,4,2,2,1,2,2,3,3,3,2,2,0,1,0,0,0,0,0,0,0,"AR",47,"Lake Coronado",-92.95389,34.655,"SAP                1"
"AR48",3,3,3,3,1,3,3,3,1,1,1,3,3,3,3,3,1,5,1,2,1,2,4,4,4,3,3,3,1,0,0,0,0,0,0,0,0,"AR",48,"lake des arc",-91.50833,35.02167,"CPL                1"
"AR49",3,3,3,3,1,3,3,3,1,1,2,3,3,4,3,3,3,4,2,2,1,3,4,4,4,1,3,3,0,1,0,0,0,0,0,0,0,"AR",49,"Lake Erling",-93.52528,33.05,"CPL                1"
"AR5",3,3,3,3,1,3,3,3,3,2,2,3,3,2,3,3,4,3,2,2,1,4,2,3,3,3,3,3,0,1,0,0,0,0,0,0,0,"AR",5,"Beaver Lake",-93.84833,36.41667,"SAP                1"
"AR50",2,3,2,3,1,3,2,1,1,1,1,1,2,2,3,2,1,2,2,1,1,2,2,2,2,4,3,3,0,1,0,0,0,0,0,0,0,"AR",50,"Lake Fort Smith",-94.14861,35.56111,"SAP                1"
"AR51",3,3,3,3,2,3,3,2,4,2,1,2,2,2,2,2,2,5,3,2,1,2,2,2,2,2,2,2,0,1,0,0,0,0,0,0,0,"AR",51,"Lake G-P",-92.04361,33.21972,"CPL                3"
"AR52",2,2,2,3,1,3,3,2,1,1,1,2,2,3,2,2,3,5,2,1,1,3,2,3,3,3,3,3,0,1,0,0,0,0,0,0,0,"AR",52,"Lake Maumelle",-92.48695,34.85361,"SAP                1"
"AR53",4,4,4,4,2,2,2,5,1,2,1,5,4,4,4,4,1,4,4,3,2,4,4,3,4,5,2,3,0,1,0,0,0,0,0,0,0,"AR",53,"Lake Monticello",-91.85361,33.70028,"CPL                1"
"AR54",2,2,2,2,1,2,3,4,2,1,1,3,2,2,3,3,2,5,1,2,1,2,2,3,3,4,3,2,0,1,0,0,0,0,0,0,0,"AR",54,"Lake Norrell",-92.645,34.71833,"SAP                1"
"AR55",3,3,3,3,1,3,3,3,1,1,1,4,3,3,3,3,3,4,2,3,2,3,3,3,3,3,3,3,1,0,0,0,0,0,0,0,0,"AR",55,"Lake Overcup",-92.73333,35.19833,"SAP                1"
"AR56",3,3,3,3,1,2,3,2,1,1,1,3,3,3,3,3,3,3,2,2,1,3,3,3,3,3,3,3,1,0,0,0,0,0,0,0,0,"AR",56,"Lake Poinsett",-90.67555,35.52333,"CPL                1"
"AR57",3,3,3,3,2,3,3,3,1,1,2,3,3,4,3,3,1,4,2,3,1,3,3,3,3,3,3,3,0,1,0,0,0,0,0,0,0,"AR",57,"Lake Sequoyah",-94.06861,36.06667,"SAP                3"
"AR6",3,3,3,3,2,3,3,3,2,1,1,3,3,4,3,3,3,3,2,2,1,3,4,4,4,3,3,3,0,1,0,0,0,0,0,0,0,"AR",6,"Beaver Fork Lake",-92.44527,35.14333,"SAP                1"
"AR60",2,2,2,2,1,3,3,3,1,1,1,2,3,3,3,2,2,5,1,1,1,2,3,3,3,4,3,2,1,0,0,0,0,0,0,0,0,"AR",60,"Lake Winona",-92.85,34.79667,"SAP                1"
"AR61",3,3,3,3,1,3,3,3,1,1,1,4,3,3,3,3,2,4,2,2,1,4,4,3,3,3,3,3,0,1,0,0,0,0,0,0,0,"AR",61,"Lee Creek Reservoir",-94.4148,35.4866,"SAP                1"
"AR62",3,3,3,3,2,2,2,1,3,2,3,4,3,4,5,3,2,5,4,4,1,3,4,4,4,3,2,2,0,1,0,0,0,0,0,0,0,"AR",62,"SWEPCO Lake",-94.54417,36.23917,"SAP                1"
"AR64",2,3,3,3,3,3,3,4,2,1,2,4,3,4,3,3,4,5,1,2,1,2,3,3,3,3,3,3,0,1,0,0,0,0,0,0,0,"AR",64,"Lower White Oak Lake",-93.09666,33.70167,"CPL                3"
"AR65",3,3,3,3,1,3,3,3,1,2,1,3,3,2,3,3,2,3,2,1,1,3,2,2,2,3,3,3,0,1,0,0,0,0,0,0,0,"AR",65,"Ludwig Lake",-93.45583,35.53333,"SAP                1"
"AR68",3,3,3,3,1,3,3,3,1,1,2,3,3,4,2,4,5,5,3,3,1,3,4,4,4,1,3,4,0,1,0,0,0,0,0,0,0,"AR",68,"Millwood Lake",-93.96167,33.695,"CPL                1"
"AR71",3,3,3,3,2,3,3,3,3,1,1,3,3,3,3,3,3,4,2,1,1,3,3,3,3,3,3,3,0,0,0,0,1,0,0,0,0,"AR",71,"Pool 7 Arkansas River",-92.35833,34.79167,"SAP                3"
"AR72",3,3,3,3,1,3,3,4,1,1,3,3,3,3,3,4,3,2,2,2,1,3,3,3,3,2,3.1,3,1,0,0,0,0,0,0,0,0,"AR",72,"Greeson",-93.715,34.14833,"SAP                1"
"AR73",4,4,3,3,1,3,3,2,1,1,1,4,4,3,3,3,3,3,2,3,1,4,4,4,3,3,3,3,1,0,0,0,0,0,0,0,0,"AR",73,"Nimrod",-93,34.95167,"SAP                1"
"AR74",3,3,3,3,1,3,3,3,3,1,4,4,3,3,4,3,5,4,3,3,1,3,3,3,3,3,2,2,0,1,0,0,0,0,0,0,0,"AR",74,"Norfork",-92.24,36.25,"SAP                1"
"AR76",3,3,4,3,3,3,3,3,1,1,1,3,3,3,3,3,1,5,3,2,1,3,3,3,3,3,3,3,1,0,0,0,0,0,0,0,0,"AR",76,"Ozark City Lake",-93.845,35.53,"SAP                1"
"AR77",3,3,3,3,1,3,3,3,1,1,1,3,3,3,3,3,3,5,2,2,1,3,3,3,3,3,3,3,1,0,0,0,0,0,0,0,0,"AR",77,"Lake Hinkle",-94.25222,34.85278,"SAP                1"
"AR78",3,4,4,3,2,3,3,3,3,1,1,4,4,3,4,3,3,4,1,2,1,3,4,4,4,3,4,3,0,1,0,0,0,0,0,0,0,"AR",78,"Lake Catherine",-92.8939,34.4272,"SAP                1"
"AR8",2,3,2,4,2,2,2,2,4,2,1,2,2,3,3,2,1,3,2,2,1,4,3,3,3,3,3,3,0,0,0,0,1,0,0,0,0,"AR",8,"Lake Frierson",-90.72334,35.97055,"CPL                1"
"AR80",3,3,3,3,2,3,3,3,3,1,1,3,3,3,3,3,2,4,2,3,1,3,4,4,3,2,2,2,1,0,0,0,0,0,0,0,0,"AR",80,"storm creek lake",-90.61333,34.59667,"CPL                1"
"AR81",3,3,4,3,1,4,3,3,1,1,1,4,4,3,3,3,4,5,3,2,1,3,4,4,3,3,3,3,1,0,0,0,0,0,0,0,0,"AR",81,"Sugar Loaf Lake",-94.395,35.09444,"SAP                1"
"AR83",3,3,3,3,3,3,3,3,3,3,3,3,3,3,3,3,1,1,2,2,1,4,2,3,3,3,3,3,0,0,0,0,0,0,1,0,0,"AR",83,"Tri-County Lake",-92.36166,33.78333,"CPL                3"
"AR84",3,3,3,3,3,3,3,4,2,3,1,3,3,4,3,3,2,4,2,2,1,3,3,3,3,4,3,3,0,1,0,0,0,0,0,0,0,"AR",84,"Irons fork Lake",-94.13028,34.64056,"SAP                1"
"AR85",3,3,4,3,1,3,2,1,1,1,1,3,3,3,3,3,1,5,3,2,1,3,3,3,3,3,3,3,1,0,0,0,0,0,0,0,0,"AR",85,"Booneville City Lake",-94.05833,35.13945,"SAP                1"
"AR86",3,3,3,3,2,3,3,4,3,1,3,4,3,4,3,3,4,5,1,3,1,3,4,4,4,3,3,3,0,1,0,0,0,0,0,0,0,"AR",86,"Upper White Oak Lake",-93.08667,33.66667,"CPL                3"
"AR87",4,4,4,4,4,3,3,3,1,3,3,4,4,4,4,4,4,4,2,2,1,4,4,3,3,3,3,3,0,1,0,0,0,0,0,0,0,"AR",87,"Dumas Pool",-91.31333,33.98833,"CPL                4"
"AR89",3,3,3,3,2,3,3,1,1,1,1,3,3,3,3,3,1,5,2,2,1,3,4,3,3,3,3,3,1,0,0,0,0,0,0,0,0,"AR",89,"Lake Saracen",-92.00739,34.236783,"CPL                3"
"AR9",3,3,3,3,3,3,4,4,4,3,2,4,3,4,2,4,4,3,2,3,1,4,4,3,3,3,3,3,0,1,0,0,0,0,0,0,0,"AR",9,"Lake Ouachita",-93.18833,34.57333,"SAP                1"
"AR90",3,3,4,3,2,3,3,2,1,4,2,3,4,4,2,4,1,5,2,3,1,4,4,4,4,1,4,4,0,1,0,0,0,0,0,0,0,"AR",90,"Bois d' Arc",-93.703558,33.55613,"CPL                1"
"AR91",3,3,3,3,1,3,3,3,1,1,1,3,3,4,3,3,3,4,2,3,2,3,4,4,4,3,3,3,0,1,0,0,0,0,0,0,0,"AR",91,"Lake Barnett",-91.94639,35.2275,"SAP                1"
"AZ20",4,4,3,5,2,5,3,1,1,5,2,4,3,5,3,4,4,4,3,3,1,3,4,5,3,3,4,4,0,1,0,0,0,0,0,0,0,"AZ",20,"Patagonia Lake",-110.86944,31.49111,"XER                3"
"AZ24",1,1,2,1,5,2,2,1,2,5,1,1,1,3,1,2,1,2,3,2,1,1,3,2,1,3,2,2,0,0,0,0,1,0,0,0,0,"AZ",24,"Lyman Lake",-109.34111,33.07167,"WMT                2"
"AZ5",5,3,3,1,1,4,2,1,5,2,1,5,4,4,2,4,1,5,4,3,4,2,4,4,4,1,4,4,0,0,0,0,0,0,0,1,0,"AZ",5,"Big Lake",-109.41722,33.88667,"WMT                1"
"CA100",3,3,3,3.6,3,3,3,1,2,1,1,3,2,3,2,2,2,3,3,4,1,4,3,3,3,3,3,3,0,1,0,0,0,0,0,0,0,"CA",100,"Folsom Lake",-121.1567,38.70755,"XER                3"
"CA11",5,5,3,2,4,5,2,1,5,1,1,4,4,4,4,4,2,3,3,3,3,5,5,5,3,3,3,3,0,0,0,0,0,0,0,1,0,"CA",11,"Big Bear Lake",-116.977,34.242,"WMT                2"
"CA129",3,2,3,3,4,3,2,1,1,3,3,5,3,3,4,2,5,4,3,2,1,3,2,3,3,3,4,3,0,1,0,0,0,0,0,0,0,"CA",129,"Lake Hodges",-117.128,33.045,"XER                3"
"CA141",4,5,3,4,3,3,2,1,1,3,3,3,4,3,4,3,2,4,4,3,1,4,3,4,3,3,3,3,0,0,0,1,0,0,0,0,0,"CA",141,"Iron Gate Reservoir",-122.4349,41.9342,"WMT                2"
"CA149",3,2,3,2,1,1,1,3,1,1,4,2,2,4,4,4,1,4,4,3,1,3,3,4,3,2,1,2,0,0,0,0,0,0,0,1,0,"CA",149,"Keswick Reservoir",-122.4454,40.61201,"XER                3"
"CA152",4,4,4,4,3,4,4,4,1,1,1,2,4,4,3,5,1,3,2,3,1,4,4,4,2,3,3,3,0,1,0,0,0,0,0,0,0,"CA",152,"Lake Arrowhead",-117.167,34.262,"WMT                2"
"CA157",4,4,3,2,5,4,2,3,1,4,1,4,3,3,4,4,1,1,4,4,4,5,5,5,3,3,1,1,0,0,0,0,0,0,0,1,0,"CA",157,"Lake Hemet",-116.705,33.665,"WMT                2"
"CA158",3,2,3,2,3,3,3,1,1,3,2,1,2,3,4,2,1,5,3,2,1,3,2,3,3,3,3,2,0,1,0,0,0,0,0,0,0,"CA",158,"Loveland Reservoir",-116.792,32.782,"XER                3"
"CA165",2,4,2,3,1,1,1,3,1,1,1,2,2,2,2,2,1,1,3,1,1,2,2,2,2,3,2,2,0,0,0,0,0,0,0,1,0,"CA",165,"Lake Leavitt",-120.507,40.377,"XER                2"
"CA166",3,2,3,2,1,2,2,3,2,1,2,3,3,4,3,3,3,4,2,1.8,3.3,3,3,3,3,3,3,3,0,0,0,0,0,0,0,1,0,"CA",166,"Lewiston Lake",-122.793,40.72637,"WMT                2"
"CA185",3,2,3,3,1,1,2,2,1,1,1,3,3,3,3,3,1,1,4,3,1,3,3,3,3,3,3,3,0,0,0,0,0,0,0,1,0,"CA",185,"McCloud Reservoir",-122.0713,41.1309,"WMT                2"
"CA186",3,2,3,2,1,1,1,3,1,1,3,2,3,3,3,3,1,4,3,2,2,2,2,2,2,2,2,2,0,0,0,0,0,0,0,1,0,"CA",186,"Mc Coy Flat Reservoir",-120.942,40.453,"WMT                2"
"CA196",4,3,4,3,1,4,3,1,3,1,1,4,3,3,3,4,4,4,2,3,1,3,3,3,3,3,3,3,0,1,0,0,0,0,0,0,0,"CA",196,"Lake Berryessa",-122.1043,38.51337,"XER                3"
"CA197",2,2,3,2,4,3,2,1,4,3,4,2,2,3,4,2,1,3,3,2,4,3,2,3,1,3,1,1,0,0,0,0,0,0,0,1,0,"CA",197,"Lake Morena",-116.55,32.685,"XER                3"
"CA2",2,2,4,3,1,3,3,1,2,1,1,2,3,3,3,3,1,4,3,2,1,2,2,3,3,3,3,2,0,1,0,0,0,0,0,0,0,"CA",2,"Anderson Lake",-121.6308,37.1676,"XER                3"
"CA214",4,4,4,4,1,4,3,1,4,1,1,4,3,3,3,3,4,3,2,4,1,4,4,3,4,3,2,2,0,1,0,0,0,0,0,0,0,"CA",214,"Perris Reservoir",-117.183,33.858,"XER                2"
"CA217",3,3,3,4,2,3,3,1,1,1,1,3,4,3,3,3,3,3,3,2,1,3,3,3,3,3,3,3,1,0,0,0,0,0,0,0,0,"CA",217,"Lake Britton",-121.6767,41.0218,"WMT                2"
"CA218",3,3,3,3,1,2,2,3,1,1,2,3,2.2,3,4,3,1,4,4,2,1,3,3,3,3,3,3,3,0,0,0,0,0,0,0,1,0,"CA",218,"Pitt 6 Reservoir",-121.9931,40.9224,"WMT                2"
"CA226",3,3,3,3,2,3,3,3,1,1,1,3,3,2,3,3,3,3,4,2,1,3,3,3,3,3,3,3,1,0,0,0,0,0,0,0,0,"CA",226,"Ruth Lake",-123.4332,40.3685,"WMT                2"
"CA23",3,2,3,2,1,2.7,3,2,2,1,3,3,3,3,2,2,1,2,3,1,1,3,3,3,2,3,2,2,1,0,0,0,0,0,0,0,0,"CA",23,"Big Sage reservoir",-120.625,41.578,"WMT                2"
"CA233",2,2,3,1,4,3,3,1,1,3,1,3,2,4,3,2,1,3,3,2,1,3,2,3,3,3,4,4,0,0,0,0,0,0,1,0,0,"CA",233,"Lake Skinner",-117.072,33.587,"XER                3"
"CA244",3,4,3,3,3,4,2,3,3,3,2,3,3,4,3,3,2,4,3,3,4,3,3,4,3,3,3,3,0,0,0,0,0,0,0,1,0,"CA",244,"San Pablo Reservoir",-122.26,37.943,"XER                3"
"CA245",2,2,2,2,3,3,2,1,1,3,4,1,1,4,3,1,1,1,3,3,1,3,4,4,3,4,2,2,0,1,0,0,0,0,0,0,0,"CA",245,"San Vicente Reservoir",-116.925,32.912,"XER                3"
"CA248",3,3,3,3,3,2,3,1,1,3,1,5,2,3,4,2,4,4,3,2,1,2,3,3,3,3,3,2,0,1,0,0,0,0,0,0,0,"CA",248,"Lower Otay Reservoir",-116.927,32.61,"XER                3"
"CA25",3,3,3,3,1,3,3,1,3,2,1,3,2,3,3,3,1,3,3,3,4,3,3,3,2,3,1,1,0,0,0,0,0,0,0,1,0,"CA",25,"Boca Reservoir",-120.0955,39.39009,"WMT                2"
"CA259",2,5,3,4,2,2,2,4,1,1,1,2,2,3,2,2,1,1,1,1,1,5,2,2,2,2,1,1,0,0,0,0,0,0,0,1,0,"CA",259,"Silva Flat",-120.922,40.968,"XER                3"
"CA272",3,3,3,3,4,2,2,1,1,3,2,1,1,3,3,2,1,5,3,2,1,3,3,3,3,3,3,3,0,1,0,0,0,0,0,0,0,"CA",272,"Sweetwater Reservoir",-117.007,32.692,"XER                3"
"CA28",4,3,3,3,2,3,3,3,2,2,2,2,3,2,3,3,1,3,2,3,3,3,3,2,2,3,2,2,0,0,0,0,0,0,0,1,0,"CA",28,"Bowman Lake",-120.6527,39.4485,"WMT                2"
"CA282",4,4,3,3,2,3,3,3,1,1,4,3,3,4,3,3,3,3,2,3,1,3,3,3,4,3,3,3,0,1,0,0,0,0,0,0,0,"CA",282,"Trinity Reservoir",-122.7622,40.80111,"WMT                2"
"CA29",3,2,3,2,1,2,2,3,1,1,1,3,3,3,3,3,1,3,3,2,4,3,3,4,3,3,2,2,0,0,0,0,0,0,0,1,0,"CA",29,"Lake Siskiyou",-122.3285,41.2822,"WMT                1"
"CA291",2,2,2,1,1,2,1,1,1,1,1,1,1,1,1,2,2,4,2,1,1,1,2,3,1,3,3,3,1,0,0,0,0,0,0,0,0,"CA",291,"Uvas Reservoir",-121.69,37.067,"XER                3"
"CA299",3,2,3,2,2,3,3,3,2,1,3,3,3,4,3,3,3,2,3,2,2,3,3,4,3,3,3,3,0,0,0,0,0,0,0,0,1,"CA",299,"Whiskeytown Lake",-122.5395,40.59923,"XER                2"
"CA3",3,2,3,2,1,1,3,3,1,1,1,2,3,3,3,3,1,3,2,1,2,2,3,3,3,3,2,2,0,0,0,0,0,0,0,1,0,"CA",3,"Antelope Lake",-120.483,40.835,"XER                2"
"CA30",4,4,4,4,3,4,4,4,3,1,1,4,4,4,3,4,3,4,1,2.5,2.5,4,4,4,3,3,2,2,0,0,0,0,0,0,0,1,0,"CA",30,"Cachuma",-119.9815,34.58721,"XER                2"
"CA36",3,4,3,3,2,3,3,3,4,2,1,4,4,3,2,4,3,4,1,1,1,4,2,3,2,3,4,4,0,0,0,0,0,0,0,0,1,"CA",36,"Bucks Lake",-121.2038,39.8953,"WMT                1"
"CA40",3,3,4,3,3,3,3,3,1,1,1,2,3,4,3,3,1,3,1,2,4,3,3,3,3,3,2,2,0,0,0,0,0,0,0,1,0,"CA",40,"Butt Valley Reservoir",-121.1461,40.1154,"WMT                2"
"CA43",3,2,3,2,2,1,2,1,1,1,1,2,3,2,3,3,1,4,4,2,1,3,3,3,3,3,3,3,0,1,0,0,0,0,0,0,0,"CA",43,"Lake Calero",-121.792,37.183,"XER                3"
"CA44",2,2,2,2,2,2,2,1,1,1,1,2,2,2,3,2,2,2,2,1,1,3,2,3,2,3,2,2,0,1,0,0,0,0,0,0,0,"CA",44,"Camp Far West",-121.3165,39.0501,"XER                3"
"CA46",4,4,4,4,2,4,4,5,5,2,1,5,5,5,3,5,2,5,2,4,4,5,5,5,3,3,2,2,0,0,0,0,0,0,0,1,0,"CA",46,"Caples Lake",-120.0493,38.7066,"WMT                2"
"CA47",4,4,4,4,1,3,3,1,1,1,1,4,4,4,3,4,2,4,3,4,1,4,5,5,5,3,5,5,0,1,0,0,0,0,0,0,0,"CA",47,"Casitas",-119.3353,34.37144,"XER                2"
"CA49",3,1,5,4,1,2,2,1,1,5,1,4,3,2,3,3,5,4,3,3,1,2,3,2,2,1,2,2,0,1,0,0,0,0,0,0,0,"CA",49,"Castaic Lake",-118.6148,34.5263,"WMT                2"
"CA51",4,4,4,4,3,5,3,1,5,1,1,4,3,3,3,4,3,3,2,2,4,4,4,4,3,3,5,5,0,0,0,0,0,0,0,1,0,"CA",51,"Silverwood Reservoir",-117.3142,34.3046,"WMT                2"
"CA52",3,3,3,3,4,3,2,2,3,4,1,3,3,4,3,3,1,4,4,4,4,3,4,4,3,3,1,2.1,0,0,0,0,0,0,0,1,0,"CA",52,"Lake Chabot, (Alameda Co.)",-122.122,37.73,"XER                3"
"CA56",4,3,4,3,3,3,3,1,1,4,4,5,4,4,5,4,5,5,4,4,1,4,4,3,4,3,3,3,0,1,0,0,0,0,0,0,0,"CA",56,"Clear Lake",-122.5663,38.9227,"XER                3"
"CA64",4,4,3,4,1,3,2,2,1,1,1,3,3,3,3,2,1,2,4,2,1,3,2,3,3,3,3,3,0,0,0,1,0,0,0,0,0,"CA",64,"Copco",-122.3334,41.9794,"WMT                2"
"CA67",3,2,3,2,1,3,3,1,3,1,1,3,3,2,2,3,1,3,3,2,1,2,3,3,3,3,3,3,0,1,0,0,0,0,0,0,0,"CA",67,"Coyote Lake",-121.548,37.118,"XER                3"
"CA68",2,4,2,4,1,1,1,1,1,1,3,1,1,1,1,1,1,1,2,1,1,5,2,2,2,2,2,2,0,1,0,0,0,0,0,0,0,"CA",68,"Coyote Flat reservoir",-120.985,40.908,"WMT                2"
"CA72",3,2,3,2,4,3,3,1,5,3,1,5,4,3,3,3,1,4,4,3,4,5,3,3,3,5,1,1,0,0,0,0,0,0,0,1,0,"CA",72,"lake cuyamaca",-116.587,32.99,"XER                2"
"CA74",4,4,3,3,2,4,3,1,4,3,1,5,4,4,3,4,2,4,4,4,4,4,4,4,3,3,3,3.1,0,0,0,0,0,0,0,1,0,"CA",74,"Lake Del Valle, (Alameda Co.)",-121.745,37.615,"XER                3"
"CA75",5,5,5,4,5,5,3,1,5,5,1,5,4,4,3,5,5,5,3,3,1,3,4,4,3,3,3,4,0,1,0,0,0,0,0,0,0,"CA",75,"Diamond Valley Lake",-117.066,33.67,"XER                3"
"CA8",4,2,4,2,1,2,2,1,1,3,1,2,4,3,4,4,1,5,4,2,1,4,2,2,2,3,3,3,0,1,0,0,0,0,0,0,0,"CA",8,"Lake Barrett",-116.67,32.678,"XER                3"
"CA82",3,2,3,2,1,1,2,3,1,1,1,3,3,3,2,2,1,2,2,1,1,3,2,2,2,3,2,2,0,0,0,0,0,0,0,1,0,"CA",82,"Dorris",-120.5,41.53333,"WMT                2"
"CA92",4,4,4,3,3,5,4,1,1,3,2,5,3,2,3,3,5,4,3,3,1,4,3,3,3,3,4,4,0,1,0,0,0,0,0,0,0,"CA",92,"El Capitan Reservoir",-116.81,32.883,"XER                3"
"CO117",3,3,3,3,2,3,2,1,5,1,1,3,3,3,4,4,1,5,4,4,4,3,3,3,2,4,2.2,2,0,0,0,0,0,0,0,1,0,"CO",117,"Mt Elbert Forebay",-106.3562,39.11186,"WMT                1"
"CO148",3,5,3,4,5,3,3,3,3,4,3,3,3,3,3,3,4,3,2,2,4,3,3,3,4,3,4,4,0,0,0,0,0,0,0,1,0,"CO",148,"Wolford Mountain Reservoir",-106.4153,40.11306,"WMT                2"
"CO166",3,4,2,3,4,3,2,1,4,1,1,2,2,3,3,2,1,4,4,3,4,2,2,2,2,4,1.1,1,0,0,0,0,0,0,0,1,0,"CO",166,"Turquoise Reservoir",-106.3703,39.25167,"WMT                1"
"CO17",3,3,4,5,2,2,3,1,5,1,1,4,4,3,2,5,2,4,2,4,4,4,4,3,3,1,3,3,0,0,0,0,0,0,0,1,0,"CO",17,"Boyd Lake",-105.0244,40.42056,"SPL                3"
"CO189",2,4,1,2,4,3,2,1,4,1,1,1,1,2,3,2,1,4,4,3,4,2,2,2,1,5,1,1,0,0,0,0,0,0,0,1,0,"CO",189,"Twin Lakes Reservoirs",-106.32303,39.08144,"WMT                1"
"CO23",5,4,4,3,2,3,3,1,4,2,1,5,3,4,4,4,4,3,2,2,4,3,4,4,3,3,4,4,0,0,0,1,0,0,0,0,0,"CO",23,"Chatfield Reservoir",-105.0583,39.55833,"SPL                1"
"CO26",3,3,3,3,5,4,3,1,4,1,1,4,4,3,2,5,1,5,4,4,4,4,3,3,3,3,1.7,2,0,0,0,0,0,0,0,1,0,"CO",26,"Clear Creek Reservoir",-106.2472,39.02167,"WMT                1"
"CO34",2,1,1,1,5,1,1,3,3,3,3,3,2,2,3,2,1,2,3,2,4,1,1,2,1,4,1,1,0,0,0,0,0,0,0,1,0,"CO",34,"Dillon Reservoir",-106.0656,39.61833,"WMT                1"
"CO51",4,4,5,2,5,3,3,3,5,5,1,4,4,4,3,4,4,3,2,2,4,3,3,3,3,4,2,2,0,0,0,0,0,0,0,1,0,"CO",51,"Granby Reservoir",-105.8673,40.1487,"WMT                1"
"CT31",3,3,3,3,1,4,3,1,4,1,1,4,3,3,3,4,4,5,3,2,1,4,4,3,3,3.2,3.3,3.6,0,1,0,0,0,0,0,0,0,"CT",31,"Mansfield Hollow Reservoir",-72.18167,41.765,"NAP                1"
"CT38",4,4,4,3,1,4,4.2,1,1,1,1,2,4,4,1,4,2,5,2,1,1,4,4,4,4,1.8,3,4,0,1,0,0,0,0,0,0,0,"CT",38,"Moodus Reservoir",-72.42667,41.51333,"NAP                1"
"CT42",4,4,3,3,1,3,3,1,4,1,3,2,3,3,3,3,4,5,2,2,1,4,4,4,4,2.7,3,3,0,1,0,0,0,0,0,0,0,"CT",42,"Pachaug Pond",-71.93,41.58167,"NAP                2"
"CT50",3,3,4,4,1,3,3,1,3,1,1,3,3,4,3,3,1,5,3.5,3,4,4,4,4,4,3.4,2.4,2.7,0,0,0,0,0,0,0,1,0,"CT",50,"Saugatuck Reservoir",-73.35,41.24833,"NAP                1"
"CT54",5,5,4,3,2,5,5,1,1,1,1,3,3,3,3,3,5,3,2,3,1,4,4,3,5,3.4,3,3,0,1,0,0,0,0,0,0,0,"CT",54,"Lake Lillinonah",-73.2964,41.4479,"NAP                1"
"CT56",5,5,3,2,2,5,4,1,1,1,1,3,3,3,3,3,5,3,2,3,1,3,3,4,4,2.5,2,3,0,1,0,0,0,0,0,0,0,"CT",56,"Lake Zoar",-73.1721,41.3832,"NAP                1"
"CT6",4,5,4,4,4,4,4,1,4,1,2,5,4,4,2,4,5,2,2,3,1,4,5,4,3,3,3,3,0,1,0,0,0,0,0,0,0,"CT",6,"Candlewood Lakes",-73.45,41.425,"NAP                1"
"CT60",2,4,2,2,1,2,3,1,1,1,3,2,3,3,3.8,3.8,1,3,2,2,1,3,3,3,3,2.7,3.1,2.9,0,1,0,0,0,0,0,0,0,"CT",60,"Williams Pond",-72.30167,41.63,"NAP                1"
"CT7",2,2,2,3,1,2,3,1,4,1,1,2,2,3,3,2.7,2,5,2,2,1,2,3,3,3,2.5,2,2.9,0,1,0,0,0,0,0,0,0,"CT",7,"Colebrook River Reservoir",-73.03667,42,"NAP                1"
"FL110",4,4,4,4,3,3,3,1,1,1,3,5,4,3,2,4,5,3,2,3,1,4,4,3,3,3,3,4,0,1,0,0,0,0,0,0,0,"FL",110,"Rodman",-81.69,29.47,"CPL                3"
"FL12",4,4,3,2,4,3,3,3,3,4,1,2,2,4,3,3,1,5,2,3,1,3,4,4,4,2,3,3,0,0,0,0,1,0,0,0,0,"FL",12,"Edward Medard Reservoir",-82.16,27.91,"CPL                4"
"FL157",3,3,3,3,1,2,3,3,1,1,1,3,3,3,3,3,1,5,2,2,1,3,3,3,3,3,3,3,0,0,0,0,0,1,0,0,0,"FL",157,"Juniper Lake",-86.130438,30.770159,"CPL                1"
"FL158",3,3,3,3,1,3,3,1,2,1,1,2,4,3,2,3,3,3,3,3,1,3,3,3,3,3,3,3,0,0,0,0,0,1,0,0,0,"FL",158,"Deer Point",-85.587716,30.30139,"CPL                1"
"FL159",3,3,4,3,3,3,3,1.4,2.4,1.5,3,4,4,3,3,4,3,4,3,2,1.1,4,3,3,3,3,4,4,0,1,0,0,0,0,0,0,0,"FL",159,"Garcia",-80.670211,27.676839,"CPL                3"
"FL160",3,3,3,3,1,2,3,3,2,1,1,5,4,3,3,3,1,4,2,1,1,4,2,2,2,3,3,2,0,1,0,0,0,0,0,0,0,"FL",160,"Hurricane Lake",-86.758275,30.941102,"CPL                1"
"FL161",4,3,4,3,4,3,3,1,1,3,1,4,4,4,3,3,1,5,3,4,1.8,4,4,4,4,3,3,4,0,1,0,0,0,0,0,0,0,"FL",161,"Stick Marsh",-80.726366,27.807498,"CPL                3"
"FL4",2,2,2,3,1,2,3,1,1,1,4,3,2,2,4,2,1,3,3,1,1,2,2,2,2,3,2,2,0,1,0,0,0,0,0,0,0,"FL",4,"Tsala Apopka Chain of Lakes",-82.3,28.88,"CPL                1"
"FL74",4,3,4,3,2,3,3,1,1,1,3,3,3,3,4,3,2,3,3,2,1,4,3,3,3,3,3,3,0,1,0,0,0,0,0,0,0,"FL",74,"Lake Rousseau",-82.61,29.02,"CPL                1"
"GA15",3,3,3,3,3,3,3,3,4,3,3,4,4,3,3,4,4,3,3,3,1,4,4,4,4,3,3,3,0,1,0,0,0,0,0,0,0,"GA",15,"Lake Sidney Lanier",-84.07333,34.16,"SAP                1"
"GA16",3,3,3,3,3,3,3,4,3,3,3,4,3,4,3,3,4,2,4,4,1,4,4,4,4,3,3,3,0,1,0,0,0,0,0,0,0,"GA",16,"Lake Burton",-83.5403,34.7937,"SAP                1"
"GA21",2,2,2,3,2,3,3,4,3,2,4,4,2,3,3,2,3,3,1,3,1,2,3,3,3,4,3,3,0,1,0,0,0,0,0,0,0,"GA",21,"Lake Blackshear",-83.9346,31.8368,"CPL                4"
"GA23",1,2,1,3,2,3,3,2,2,2,2,3,1,2,2,2,4,3,2,1,1,1,1,2,1,4,1,2,0,1,0,0,0,0,0,0,0,"GA",23,"Lake Worth",-84.137,31.6026,"CPL                4"
"GA27",3,3,3,3,3,3,3,3,3,3,3,3,3,3,3,3,3,3,3,3,1,3,3,3,3,3,3,3,0,1,0,0,0,0,0,0,0,"GA",27,"Lake Hartwell",-82.48,34.21,"SAP                1"
"GA29",3,4,3,4,2,4,3,3,2,3,3,1,4,5,2,4,2,3,2,3,1,3,4,3,3,3,3,4,0,0,0,0,1,0,0,0,0,"GA",29,"High Falls",-84.02028,33.17972,"SAP                4"
"GA37",2,2,3,2,3,4,4,4,2,3,1,2,3,3,3,4,2,4,2,3,1,3,4,3,3,3,4,4,0,1,0,0,0,0,0,0,0,"GA",37,"Lake Juliette",-83.75528,33.03278,"SAP                1"
"GA42",4,4,4,3,2,4,4,4,2,2,1,5,4,4,3,4,2,4,2,3,1,4,4,3,4,4,4,4,0,1,0,0,0,0,0,0,0,"GA",42,"Lake Tobesofkee",-83.77055,32.81972,"SAP                1"
"GA48",4,5,2,4,4,3,3,3,1,3,3,4,3,3,4,3,3,3,2,3,1,2,4,3,1,3,3,4,0,1,0,0,0,0,0,0,0,"GA",48,"Jackson Lake",-83.8415,33.3206,"SAP                3"
"GA51",3,3,3,3,3,3,3,1,3,1,1,3,3,3,3,3,1,1,4,1,1,4,3,3,3,3,3,3,0,1,0,0,0,0,0,0,0,"GA",51,"Lake Rabun",-83.4162,34.7654,"SAP                1"
"GA54",3,3,3,3,3,3,3,1,3,1,1,2,3,3,3,3,1,3,1,4,4,3,3,3,3,3,3,3,0,0,0,1,0,0,0,0,0,"GA",54,"Lake Seed",-83.5012,34.7549,"SAP                1"
"GA56",3,4,4,3,3,3,3,4,4,3,3,3,3,3,3,3,3,3,3,2,1,3,3,3,3,3,3,3,0,1,0,0,0,0,0,0,0,"GA",56,"Lake Nottely",-84.092,34.958,"SAP                1"
"GA74",4,4,4,4,3,4,4,4,1,3,3,4,4,3,3,3,5,4,2,2,1,4,3,2,4,4,4,4,0,1,0,0,0,0,0,0,0,"GA",74,"Lake Sinclair",-83.2018,33.1405,"SAP                1"
"GA79",3,2,3,3,2,4,4,2,2,2,1,1,3,4,3,4,2,5,2,2,1,3,4,3,2,3,3,3,0,1,0,0,0,0,0,0,0,"GA",79,"Javor Lucas Lake",-83.65916,32.90083,"SAP                1"
"GA81",3,3,3,3,3,3,3,3,3,3,3,3,3,3,3,3,2,5,3,3,1,4,4,4,4,3,4,4,0,1,0,0,0,0,0,0,0,"GA",81,"Lake Tugalo",-83.3519,34.7144,"SAP                1"
"GA90",3,3,3,3,3,3,3,3,3,3,3,3,3,3,3,3,1,3,3,3,1,3,3,3,3,3,3,3,0,1,0,0,0,0,0,0,0,"GA",90,"Lake Yonah",-83.3425,34.6814,"SAP                1"
"GA92",3,2,3,2,4,4,4,4,2,4,3,4,2,4,3,3,5,5,1,3,1,3,4,4,4,4,4,3,0,1,0,0,0,0,0,0,0,"GA",92,"Lake Seminole",-84.874306,30.727081,"CPL                3"
"GA93",4,4,4,3,3,3,3,3,3,3,2,4,4,4,3,3,5,4,1,3,1,4,4,3,3,4,4,4,0,1,0,0,0,0,0,0,0,"GA",93,"Walter F. George reservoir",-85.096092,31.683186,"CPL                3"
"IA10",4,5,3,5,4,3,2,5,4,4,3,4,3,3,4,2,2,3,3,3,1,5,5,4,4,3,4,4,0,0,0,0,1,0,0,0,0,"IA",10,"Coralville Reservoir",-91.5293,41.7243,"TPL                2"
"IA14",3,4,3,4,4,2.5,2,3,2,4,2,3,2,3,3,2,2,3,3,3,1,4,4,4,4,3,3,3,0,0,0,0,1,0,0,0,0,"IA",14,"FIve-in-one Dam",-91.6667,41.9833,"TPL                2"
"IA15",4,4,4,3,1,3,3,3,3,1,1,3,3,3,3,3,2,3,2,2,1,3,4,4,4,3,3,3,0,0,0,0,0,1,0,0,0,"IA",15,"Green Valley",-94.3883,41.1062,"TPL                1"
"IA16",3,3,3,3,2,4,4,1,1,4,1,2,2,3,3,3,3,1,2,1,1,1,3,3,3,3,2,3,0,0,0,0,0,1,0,0,0,"IA",16,"Lake Delhi",-91.3635,42.4102,"TPL                1"
"IA18",4,4,4,3,2,2,2,2,1,2,1,4,4,3,3,4,2,4,2,2,1,4,3,3,3,3,3,3,0,0,0,0,0,1,0,0,0,"IA",18,"Casey Lake",-92.3106,42.2645,"TPL                1"
"IA19",3,3,3,3,3,3,3,3,1,1,1,2,2,3,3,2,1,2,3,3,1,2,3,3,3,3,3,3,0,0,0,0,1,0,0,0,0,"IA",19,"Lake Nakomis",-94.2293,42.7267,"TPL                2"
"IA2",4,3,2,2,4,2,2,2,3,5,3,5,3,2,4,3,3,4,2,2,1,4,2,2,3,3,2,3,0,0,0,0,0,1,0,0,0,"IA",2,"Badger Creek Lake",-93.9088,41.4683,"TPL                1"
"IA20",2,2,2,3,4,3,2,3,1,3,3,1,2,2,3,2,2,2,1,2,1,1,1,3,3,4,2,2,1,0,0,0,0,0,0,0,0,"IA",20,"Independence Impoundment",-91.9005,42.4776,"TPL                1"
"IA21",3,3,3,3,4,2,3,2,1,3,3,2,2,3,3,2,1,2,4,3,1,3,3,3,3,3,3,3,0,0,0,0,1,0,0,0,0,"IA",21,"Iowa Falls Impoundment",-93.2591,42.5186,"TPL                2"
"IA22",3,3,2,2,4,3,2,1,1,3,2,3,3,2,3,2,3,3,2,3,3,4,2,4,2,2,4,4,0,0,0,0,1,0,0,0,0,"IA",22,"Lake Darling",-91.9062,41.2032,"TPL                1"
"IA23",4,4,4,4,3,3,3,3,3,4,2,4,3,4,3,4,3,3,1,2,1,3,4,4,4,3,3,3,0,0,0,0,0,1,0,0,0,"IA",23,"Icaria",-94.7534,41.0481,"TPL                1"
"IA24",4,5,4,4,3,3,3,5,4,4,2,5,3,3,3,4,5,4,2,3,1,4,3,4,4,3,3,3,1,0,0,0,0,0,0,0,0,"IA",24,"Lake Macbride",-91.5752,41.7937,"TPL                1"
"IA25",3,4,3,4,5,4,2,3,4,4,2,4,3,3,3,3,1,3,3,2,1,3,2,3,2,3,3,3,0,0,0,0,0,1,0,0,0,"IA",25,"Lake of the Hills",-90.6821,41.5243,"TPL                1"
"IA28",4,4,5,2,2,3,3,4,1,1,1,4,4,4,3,3,4,4,3,3,1,4,4,4,4,3,3,3,0,0,0,0,0,1,0,0,0,"IA",28,"Lake Sugema",-91.9869,40.6835,"TPL                3"
"IA29",3,3,3,3,3,3,3,1,1,1,1,1,1,3,2,2,1,2,3,2,1,3,3,3,3,3,3,3,1,0,0,0,0,0,0,0,0,"IA",29,"Sundown Lake",-92.7212,40.8321,"TPL                1"
"IA30",4,3,4,4,2,3,3,3,1,1,1,4,4,4,3,3,2,5,4,4,1,4,4,4,4,3,3,4,0,0,0,0,0,1,0,0,0,"IA",30,"Lake Wapello",-92.5722,40.8212,"TPL                3"
"IA31",2,2,1,1,5,3,2,2,2,1,1,2,1,1,1,1,2,2,2,1,1,4,1,1,1,3,3,3,0,0,0,0,0,1,0,0,0,"IA",31,"Little River",-93.7785,40.7482,"TPL                1"
"IA32",4,4,4,4,3,5,5,1,1,3,1,5,4,4,4,4,3,4,1,2,1,4,4,4,4,5,4,4,0,1,0,0,0,0,0,0,0,"IA",32,"Mississippi",-91.095,42.785,"UMW                1"
"IA35",4,5,4,5,5,5,3,1,1,4,2,4,4,3,3,4,5,3,3,4,1,4,3,3,3,3,3,3,0,0,0,0,1,0,0,0,0,"IA",35,"Pool 12 Upper Mississippi River",-90.4221,42.2603,"UMW                1"
"IA36",4,5,4,5,5,5,2,1,1,4,2,3,4,4,4,4,5,3,3,4,1,5,3,5,3,3,3,3,0,0,0,0,1,0,0,0,0,"IA",36,"Pool 13",-90.1547,41.8972,"TPL                2"
"IA37",4,4,4,4,5,4,3,5,2,4,3,3,3,3,3,3,5,3,3,3,1,3,3,3,3,3,3,3,0,0,0,0,1,0,0,0,0,"IA",37,"Pool 14 Upper Mississippi River",-90.4003,41.5741,"TPL                2"
"IA38",3,3,3,3,5,4,3,3,1,4,1,2,3,3,3,3,1,3,3,4,1,3,3,3,3,3,3,3,0,0,0,0,1,0,0,0,0,"IA",38,"Mississippi River Pool 15",-90.5638,41.5183,"TPL                2"
"IA39",4,4,3,3,4,4,3,1,1,4,2,3,3,3,3,3,3,3,3,2,1,3,2,3,3,3,3,3,0,0,0,0,1,0,0,0,0,"IA",39,"Pool 16",-91.0102,41.425,"TPL                2"
"IA40",3,4,3,3,4,3,3,1,1,3,3,3,3,3,3,3,3,4,2,2,1,3,4,3,3,3,3,3,0,0,0,0,1,0,0,0,0,"IA",40,"Pool 17",-91.0568,41.1917,"TPL                2"
"IA41",3,3,3,3,4,3,3,1,1,4,3,3,3,3,3,3,3,3,3,2,1,4,3,3,3,3,3,3,0,0,0,0,1,0,0,0,0,"IA",41,"Pool 18",-91.024,40.8816,"TPL                2"
"IA42",4,4,4,4,3,4,3,3,3,3,2,5,4,4,4,4,2,5,2,2,1,5,4,4,4,3,3,3,0,1,0,0,0,0,0,0,0,"IA",42,"Monticello Dam",-91.172,42.2446,"TPL                2"
"IA46",3,4,3,4,2,3,2,3,3,3,2,5,3,3,2,3,4,5,2,3,1,3,2,2,2,3,3,2,0,0,0,0,0,1,0,0,0,"IA",46,"Pleasant Creek Lake",-91.8104,42.1257,"TPL                1"
"IA47",4,3,4,4,3,3,3,5,1,1,1,4,4,4,3,3,2,4,4,2,1,4,4,4,4,3,4,4,1,0,0,0,0,0,0,0,0,"IA",47,"Rathbun Lake",-92.87667,40.82833,"TPL                2"
"IA49",3,5,3,5,4,3,3,2,3,3,2,3,4,4,3,4,2,4,2,4,1,4,4,4,4,3,3,3,1,0,0,0,0,0,0,0,0,"IA",49,"Robert's Creek Lake",-93.0277,41.42,"TPL                2"
"IA5",3,3,2,4,4,3,3,3,1,3,3,5,3,4,3,3,3,4,2,3,1,3,3,3,3,3,3,3,1,0,0,0,0,0,0,0,0,"IA",5,"Big Creek Lake",-93.7405,41.7818,"TPL                2"
"IA50",2,2,2,3,3,2,3,3,1,1,3,2,2,2,3,2,2,3,2,2,1,3,2,2,2,3,3,3,1,0,0,0,0,0,0,0,0,"IA",50,"Rock Creek Lake",-92.8538,41.7381,"TPL                2"
"IA51",3,3,3,3,4,3,3,4,3,4,2,3,4,3,4,4,3,3,3,3,1,4,2,3,3,3,3,2,0,0,0,0,0,0,1,0,0,"IA",51,"Saylorville Lake",-93.6811,41.7036,"TPL                2"
"IA52",3,3,3,3,2,3,3,2,2,2,1,4,3,4,3,4,1,1,1,2,1,3,4,4,4,3,3,3,0,0,0,0,0,1,0,0,0,"IA",52,"Sun Valley",-94.0597,40.8637,"TPL                3"
"IA53",3,3,4,3,3,4,3,3,3,2,1,4,4,4,3,3,4,4,2,1,1,3,3,3,3,2,3,3,1,0,0,0,0,0,0,0,0,"IA",53,"Three Mile",-94.2119,41.0724,"TPL                1"
"IA54",4,4,4,4,1,3,3,3,4,1,1,4,4,4,2,4,4,4,2,2,1,4,4,4,4,3,3,3,1,0,0,0,0,0,0,0,0,"IA",54,"Twelve Mile",-94.2569,41.053,"TPL                1"
"IA56",3,3,4,3,1,2,2,1,2,1,2,3,3,3,3,3,4,4,2,1,1,4,2,2,2,2,2,4,1,0,0,0,0,0,0,0,0,"IA",56,"West Lake Osceola",-93.8057,41.0408,"TPL                1"
"IA58",4,4,4,4,3,5,5,1,1,1,1,5,5,4,4,4,5,5,1,2,1,4,4,4,4,5,4,4,0,1,0,0,0,0,0,0,0,"IA",58,"Mississippi",-91.09967,43.227256,"UMW                1"
"IA59",4,4,5,4,3,5,5,1,1,3,2,5,5,4,4,5,5,4,2,1,1,4,4,4,4,5,3,4,0,1,0,0,0,0,0,0,0,"IA",59,"Mississippi",-91.241827,43.611968,"UMW                1"
"IA6",4,4,4,4,1,3,3,2,1,1,1,4,4,4,2,4,5,4,3,3,1,4,3,3,3,3,3,3,0,1,0,0,0,0,0,0,0,"IA",6,"Brushy Creek",-93.9789,42.3873,"TPL                3"
"IA9",3,4,3,4,4,3,2,2,2,5,2,2,2,3,3,3,1,3,3,3,1,3,3,3,3,3,3,3,0,0,0,0,1,0,0,0,0,"IA",9,"Roller Dam",-91.6302,41.9446,"TPL                2"
"ID11",3,4,2.4,3,1,1,2,1,5,1,2,1,2,5,3,4,1,5,4,4,4,2,4,4,4,3,3,3,0,0,0,0,0,0,0,1,0,"ID",11,"Bybee Reservoir",-116.2676,42.24955,"XER                3"
"ID13",5,4,4,3,4,5,4,1,2,1,1,4,5,4,5,5,5,5,4,3,1,5,4,3,3,3,2,4,1,0,0,0,0,0,0,0,0,"ID",13,"C.J. Strike Reservoir",-115.9759,42.947,"XER                3"
"ID14",3,2,4,2,4,4,2,2,3,4,3,2,3,3,3,3,2,4,2,1,1,2,3,3,3,2,2,3,0,1,0,0,0,0,0,0,0,"ID",14,"Cabinet Gorge Reservoir",-116.0633,48.0867,"WMT                2"
"ID16",2,2,2,1,1,3,2,1,1,1,1,1,2,3,4,2,1,3,3,2,1,2,5,4,3,3,2,3,1,0,0,0,0,0,0,0,0,"ID",16,"Crane Creek Reservoir",-116.6171,44.3568,"XER                3"
"ID2",3,3,4,3,4,4,3,1,1,3,1,2,3,3,3,4,4,3,2,2,1,3,3,3,3,3,2,3,0,1,0,0,0,0,0,0,0,"ID",2,"Pend Oreille River",-117,48.18,"WMT                2"
"ID21",3,2,2,2,5,3,2,1,4,1,2,3,2,3,3,2,2,2,2,3,1,3,4,2,2,3,2,2,0,1,0,0,0,0,0,0,0,"ID",21,"Lake Lowell",-116.7361,43.58278,"XER                3"
"ID27",3,1,2,2,2,2,2,1,3,3,3,2,3,4,4,4,1,5,4,3,4,3,4,4,4,3,3,3,0,0,0,0,0,0,0,1,0,"ID",27,"Fish Creek Reservoir",-113.8323,43.42268,"WMT                2"
"ID28",2,3,2,3,3,2,2,1.5,3,4,2,3,3,3,3,3,1,3,3,3,4,2,2,3,2,3,1,3,0,0,0,0,0,0,0,1,0,"ID",28,"Gem Lake",-112.102,43.4219,"XER                2"
"ID3",3,3,3,3,3,3,3,1.4,4,3,1,3,3,3,2,3,1,3,4,3,4,3,3,3,3,3,1,3,0,0,0,0,0,0,0,1,0,"ID",3,"Ashton Reservoir",-111.4961,44.2453,"WMT                2"
"ID33",3,2,4,4,4,4,3,3,3,4,1,4,4,3,3,3,3,3,2,3,1,3,3,3,3,3,3,3,0,1,0,0,0,0,0,0,0,"ID",33,"Hayden Lake",-116.7586,47.75,"WMT                1"
"ID35",5,5,5,5,3,3,3,5,5,2,3,5,5,5,3,4,1,5,3,4,4,4,4,4,5,5,3,1,0,0,0,0,0,0,0,1,0,"ID",35,"Henrys Lake",-111.3533,44.59729,"WMT                2"
"ID38",3,1,1,1,1,2,2,1,4,1,4,3,3,4,4,4,1,5,4,3,4,3,4,4,4,3,3,3,0,0,0,0,0,0,0,1,0,"ID",38,"Little Camas Reservoir",-115.3902,43.35206,"WMT                2"
"ID4",5,5,2,5,1,3,2,1,3,3,3,2,2,5,5,2,1,5,4,4,4,2,5,5,5,4,1,2,0,0,0,0,0,0,0,1,0,"ID",4,"Blackfoot Reservoir",-111.7166,43.00378,"XER                3"
"ID44",3,4,3,3,1,3,2,3,1,1,1,4,4,4,3,5,1,3,3,3,4,4,4,4,5,3,3,4,0,0,0,0,0,0,0,0,1,"ID",44,"Lucky Peak Lake",-116.0537,43.52797,"WMT                2"
"ID45",4,3,4,3,1,3,3,1,3,1,1,3,3,3,3,4,1,5,4,4,4,3,3,3,3,3,2,3,0,0,0,0,0,0,0,1,0,"ID",45,"Mackay REservoir",-113.6732,43.95269,"WMT                2"
"ID46",4,3,3,3,2,3,2,1,5,1,3,4,3,4,4,3,1,5,3,3,4,4,4,3,3,3,3,3,0,0,0,0,0,0,0,1,0,"ID",46,"Magic Reservoir",-114.3569,43.2547,"XER                3"
"ID48",4,3,3,2,5,3,2,1,3,2,2,3,3,3,3,4,4,4,3,3,1,4,4,4,4,3,3,3,0,1,0,0,0,0,0,0,0,"ID",48,"Milner Reservoir",-114.0085,42.5256,"XER                3"
"ID51",2,2,2,1,1,1,2,3,1,1,1,2,3,3,4,3,1,5,4,3,4,3,3,3,4,3,1,3,0,0,0,0,0,0,0,1,0,"ID",51,"Mountain Home Reservoir",-115.6624,43.15713,"XER                3"
"ID59",2,2,2,3,1,2,2,1,1,1,2,2,3,2,4,2,1,5,1,2,1,2,2,3,3,4,1,3,0,1,0,0,0,0,0,0,0,"ID",59,"Paddock Reservoir",-116.5989,44.19832,"XER                3"
"ID64",3,3,4,4,3,3,3,1,1,3,2,2,2,3,3,3,3,2,2,2,1,4,3,3,3,2,3,3,0,1,0,0,0,0,0,0,0,"ID",64,"Lake Coeur d'alene",-116.961,47.709,"WMT                2"
"ID70",2,1,4,4,5,2,2,1,1,5,1,1,1,1,1,2,2,2,4,2,1,4,2,3,2,2,4,4,0,0,0,0,0,0,0,1,0,"ID",70,"Priest Lake",-116.9027,48.4906,"WMT                1"
"ID71",4,2,4,4,2,5,2,1,5,3,3,3,4,4,3,4,1,3,3,3,4,4,4,4,4,3,3,3,0,0,0,0,0,0,0,1,0,"ID",71,"Salmon Falls Creek Reservoir",-114.7342,42.21199,"XER                3"
"ID76",2,2,2,2,1,5,2,1,1,1,1,2,2,3,2,3,2,3,3,3,1,3,3,3,3,3,3,3,0,1,0,0,0,0,0,0,0,"ID",76,"Swan Falls Reservoir",-116.3785,43.2431,"XER                3"
"ID77",3,3,3,3,2,3,3,2,3,3,2,3,3,3,3,3,3,3,2,2,2,3,2,3,2,4,4,4,0,0,0,0,0,0,0,1,0,"ID",77,"Twin Lakes",-116.8644,47.8582,"WMT                1"
"ID8",5,4,4,3,5,5,3,1,1,1,4,5,5,4,3,4,5,5,3,3,1,4,4,3,3,3,2,4,1,0,0,0,0,0,0,0,0,"ID",8,"Brownlee Reservoir",-116.9006,44.8368,"WMT                2"
"ID81",5,5,2,5,4,3,3,1,2,3,1,2,3,5,3,3,3,3,4,4,4,2,5,5,5,3,1,3,0,0,0,0,0,0,0,1,0,"ID",81,"American Falls Reservoir",-112.708168,42.962955,"XER                3"
"ID82",2,3,2,3,1,3,2,3,1,1,1,3,3,3,4,3,1,3,3,3,3,2,3,3,4,3,3,3,0,0,0,0,0,0,0,1,0,"ID",82,"Arrowrock Reservoir",-115.854321,43.603516,"WMT                2"
"ID83",3,3,3,3,3,3,3,1,4,2,2,3,3,3,3,3,1,3,4,3,4,3,3,3,3,3,2,3,0,0,0,0,0,0,0,1,0,"ID",83,"Island Park Reservoir",-111.528082,44.399203,"WMT                2"
"IL10",3,4,3,3,1,4,3,4,1,1,1,2,2,3,4,3,2,3,1,3,2,3,3,4,3,3,3,3,0,1,0,0,0,0,0,0,0,"IL",10,"Carlyle Lake",-89.35229,38.61882,"TPL                1"
"IL104",3,3,2,2,4,3,2,1,1,3,1,3,3,3,3,3,3,3,2,3,1,2,3,3,3,3,2,3,0,1,0,0,0,0,0,0,0,"IL",104,"vandalia lake",-89.1133,39.0117,"TPL                1"
"IL108",3,3,2,2,3,3,3,3,1,2,3,3,3,3,3,3,3,4,2,2,1,2,3,3,3,3,2,3,0,1,0,0,0,0,0,0,0,"IL",108,"Silver Lake",-88.244722,42.235,"TPL                1"
"IL14",4,4,5,3,1,3,3,1,4,1,1,3,5,5,3,5,5,5,3,3,1,5,5,4,4,1,5,5,0,1,0,0,0,0,0,0,0,"IL",14,"Cedar Lake",-89.2833,37.66,"SAP                1"
"IL16",3,5,3,4,3,3,3,4,4,3,4,4,3,3,3,3,5,3,2,3,1,2,3,4,4,3,1,1,1,0,0,0,0,0,0,0,0,"IL",16,"Clinton Lake",-88.8717,40.135,"TPL                1"
"IL18",4,3,4,4,2,3,3,2,1,1,3,4,4,3,3,4,5,4,3,2,1,4,3,3,4,3,4,4,0,1,0,0,0,0,0,0,0,"IL",18,"Coffeen Lake",-89.3867,39.035,"TPL                3"
"IL30",4,4,3,3,3,3,3,3,3,3,4,2,3,4,3,3,1,5,3,3,1,3,4,4,4,3,2,3,0,1,0,0,0,0,0,0,0,"IL",30,"Dunlap Lake",-89.9383,38.8083,"TPL                1"
"IL31",4,3,4,4,2,3,4,1,2,2,1,4,4,3,2,4,4,3,2,3,1,3,5,4,4,3,4,3,0,1,0,0,0,0,0,0,0,"IL",31,"East Fork Lake",-88.0567,38.7583,"TPL                3"
"IL34",3,4,3,3,3,3,3,3,3,2,3,3,3,3,3,3,3,4,2,3,1,3,3,3,3,3,2,3,0,1,0,0,0,0,0,0,0,"IL",34,"Governor Bond Lake",-89.3967,38.935,"TPL                1"
"IL36",4,4,3,3,3,3,3,4,3,2,3,4,4,4,3,4,3,4,3,3,2,3,4,4,4,3,2,3,0,1,0,0,0,0,0,0,0,"IL",36,"Holiday Shores Lake",-89.9333,38.91,"TPL                1"
"IL41",4,4,4,3,1,3,3,2,4,1,1,5,4,4,3,4,3,3,3,2,1,4,4,3,3,1,3,3,0,1,0,0,0,0,0,0,0,"IL",41,"Kinkaid Lake",-89.4533,37.7783,"TPL                3"
"IL42",4,4,4,3,3,3,3,4,4,3,3,3,3,4,3,4,2,3,2,3,1,4,4,4,3,3,4,4,1,0,0,0,0,0,0,0,0,"IL",42,"Lake Bloomington",-88.9367,40.6617,"TPL                1"
"IL43",3,3,3,3,3,3,3,1,1,1,2,3,3,3,3,3,2,3,2,2,1,3,3,3,3,3,3,3,0,0,0,0,1,0,0,0,0,"IL",43,"Lake Carlinville 1 ; Lake Carlinville Old Lake",-89.8667,39.2433,"TPL                1"
"IL45",3,4,4,2,3,3,3,1,1,3,1,3,4,3,3,3,4,5,3,3,1,3,4,3,3,3,3,4,0,1,0,0,0,0,0,0,0,"IL",45,"Lake Centralia",-89.0083,38.5583,"TPL                1"
"IL48",3,4,2,4,4,2,2,4,2,2,1,1,2,3,4,2,2,2,2,3,1,3,3,4,4,4,2,3,0,0,0,0,1,0,0,0,0,"IL",48,"Lake Decatur",-88.9667,39.75,"TPL                2"
"IL49",4,4,4,4,1,1,4,4,2,1,1,3,4,4,2,4,5,4,3,3,1,5,5,5,5,3,5,5,0,1,0,0,0,0,0,0,0,"IL",49,"Lake Jacksonville",-90.2133,39.6717,"TPL                1"
"IL50",3,3,3,3,3,3,3,1,1,2,3,3,3,3,3,3,2,3,2,2,1,3,3,3,3,3,3,3,0,0,0,0,1,0,0,0,0,"IL",50,"Lake Lou Yaeger",-89.6017,39.1867,"TPL                1"
"IL51",2,4,2,4,4,3,2,4,3,2,2,2,2,2,4,2,3,2,2,4,1,3,4,4,4,5,1,5,0,0,0,0,1,0,0,0,0,"IL",51,"Lake Mattoon",-88.4817,39.3333,"TPL                2"
"IL52",3,3,4,3,2,3,3,3,2,2,2,3,3,3,3,3,2,5,2,3,1,3,4,3,3,3,3,3,0,1,0,0,0,0,0,0,0,"IL",52,"Lake Mingo",-87.7333,40.205,"TPL                3"
"IL55",2,4,2,4,4,3,2,2,1,2,1,2,2,3,4,2,4,3,2,2,1,2,2,3,2,4,2,2,1,0,0,0,0,0,0,0,0,"IL",55,"Lake Shelbyville",-88.78059,39.40951,"TPL                2"
"IL57",4,4,3,2.3,1,1,1,3,2,1,1,3,3,4,3,3,4,4,3,3,1,4,5,5,4,3,4,4,0,1,0,0,0,0,0,0,0,"IL",57,"Lake Taylorville",-89.255,39.53,"TPL                2"
"IL59",3,4,3,3,3,4,3,2,1,3,1,3,3,4,3,4,4,3,2,3,1,3,3,3,3,3,3,3,0,1,0,0,0,0,0,0,0,"IL",59,"Lake Vermilion",-87.6517,40.1567,"TPL                1"
"IL6",3,3,3,3,2,3,2,3,1,2,2,5,3,3,3,3,1,3,2,1,1,3,2,4,3,3,3,3,0,0,0,0,0,1,0,0,0,"IL",6,"Busse Lake South Pool",-88,42.01,"TPL                1"
"IL65",3,5,2,1,1,1,1,1.6,1,1,1,1,1,4,1,1,1,5,1,2,1,2,3,4,4,3,2,2,0,1,0,0,0,0,0,0,0,"IL",65,"Lake Mauvaise Terre",-90.2183,39.72,"TPL                1"
"IL67",4,2,4,2,1,3,3,4,3,4,4,4,4,4,3,4,5,3,2,1,1,4,2,2,2,2,4,4,0,1,0,0,0,0,0,0,0,"IL",67,"Mill Creek Lake",-87.7933,39.4033,"TPL                2"
"IL70",4,4,5,3,2,4,4,1,1,1,2,4,3,4,3,4,3,4,3,3,1,5,5,3,3,3,4,4,0,1,0,0,0,0,0,0,0,"IL",70,"Gillespie New City Lake",-89.8867,39.145,"TPL                1"
"IL72",3,4,4,4,1,2,2,2,1,3,4,3,4,5,1,4,3,5,4,4,1,4,5,4,4,3,4,4,0,1,0,0,0,0,0,0,0,"IL",72,"Newton Lake",-88.3033,38.885,"TPL                3"
"IL76",4,3,4,3,2,4,4,1,1.5,4,2,4,4,4,3,4,3,4,2,2,1,4,4,3,3,3,3,3,1,0,0,0,0,0,0,0,0,"IL",76,"Otter Lake",-89.91,39.4067,"TPL                1"
"IL77",2,4,2,4,3,2,2,3,3,2,1,2,2,3,3,2,2,3,2,2,1,3,2,2,2,2,2,4,1,0,0,0,0,0,0,0,0,"IL",77,"Pana Lake",-89.0217,39.3617,"TPL                2"
"IL78",3,3,4,3,1,3,3,1,1,1,1,3,3,3,3,3,2,4,2,3,1,4,3,3,3,1,3,3,0,1,0,0,0,0,0,0,0,"IL",78,"Pinckneyville City Lake",-89.395,38.0933,"TPL                3"
"IL79",4,4,3,4,4,2,3,4,5,5,4,3,4,4,5,5,2,5,3,2,1,5,3,3,4,4,3,3,0,0,0,0,1,0,0,0,0,"IL",79,"Powerton Lake",-89.6883,40.54,"TPL                3"
"IL80",3,4,4,4,1,1,1,3,3,1,1,3,4,4,3,4,5,5,3,4,1,4,4,4,4,3,4,4,0,1,0,0,0,0,0,0,0,"IL",80,"Prairie Lake",-90.055,40,"TPL                3"
"IL82",3,4,3,4,1,3,3,4,1,1,1,3,3,3,2,3,3,4,2,3,1,3,5,3,3,3,3,4,1,0,0,0,0,0,0,0,0,"IL",82,"Rend Lake",-88.94978,38.0367,"TPL                2"
"IL84",3,3,3,3,2,3,3,2,1,2,2,3,3,4,3,4,2,3,2,2,1,4,4,3,3,3,4,3,0,1,0,0,0,0,0,0,0,"IL",84,"Round Lake",-88.055,42.221,"TPL                1"
"IL86",4,4,4,3,1,1,1,3,3,1,2,5,4,3,3,4,5,5,3,2,1,5,2,2,4,3,4,4,0,1,0,0,0,0,0,0,0,"IL",86,"Lake Sangchris",-89.5,39.6667,"TPL                3"
"IL88",3,4,3,3,2,2,3,3,2,2,2,4,3,3,3,3,1,3,2,1,1,3,3,3,3,3,3,3,0,0,0,0,0,1,0,0,0,"IL",88,"Skokie Lagoons",-87.773395,42.125856,"TPL                1"
"IL90",4,5,5,4,1,1,1,4,1,1,1,3,4,3,3,3,5,3,3,2,1,5,4,5,4,3,4,4,0,1,0,0,0,0,0,0,0,"IL",90,"Lake Springfield",-89.5967,39.76,"TPL                1"
"IL99",3,4,3,3,2,4,3,4,1,1,2,3,3,4,4,3,4,3,2,2,1,3,4,3,3,3,3,3,0,0,0,0,0,1,0,0,0,"IL",99,"Fox Chain O' Lakes",-88.151,42.186,"TPL                1"
"IN10",3,4,2,2,4,3,2,3,1,3,3,3,3,3,3,3,2,3,2,2.4,1,3,3,3,3,3,3,3,1,0,0,0,0,0,0,0,0,"IN",10,"Eagle Creek Reservoir",-86.3075,39.825,"TPL                1"
"IN14",4,3,4,3,1,2,3,2,1,1,2,4,4,4,1,4,3,5,4,4,1,3,4,4,4,3,4,3,0,0,0,0,0,1,0,0,0,"IN",14,"Dogwood Lake",-87.05889,38.53778,"TPL                3"
"IN18",5,2,4,5,3,4,3,2,4,1,1,4,4,4,3,4,4,5,3,3,1,5,2,2,1,5,4,4,0,1,0,0,0,0,0,0,0,"IN",18,"Hardy Lake",-85.71,38.79111,"TPL                1"
"IN20",5,5,1,1,3,5,1,4,1,5,5,1,5,2,1,1,1,4,1,3,2,1,4,2,4,5,1,1,0,1,0,0,0,0,0,0,0,"IN",20,"Turtle Creek Reservoir",-87.52583,39.04333,"TPL                1"
"IN22",5,5,5,3,1,2,2,2,1,4,4,5,4,4,3,3,1,4,4,4,1,3,4,3,4,3,3,3,0,0,0,0,0,1,0,0,0,"IN",22,"J.C. Murphey Lake",-87.51833,40.97417,"TPL                3"
"IN23",2,2,2,2,4,2,2,1,2,2,2,2,2,2,2,2,2,3,4,3,1,3,3,3,3,3,3,3,0,0,0,1,0,0,0,0,0,"IN",23,"Roush Lake",-85.47,40.84667,"TPL                2"
"IN27",3,3,3,3,1,3,3,1,1,2,1,3,4,4,2,4,2,4,4,3,1,4,5,4,4,3,3,3,0,0,0,0,0,1,0,0,0,"IN",27,"Kickapoo Lake",-87.2475,39.16,"TPL                3"
"IN30",3,4,2,4,4,3,2,3,2,3,3,4,2,2,3,3,2,3,3,2,1,2,3,3,3,4,2,2,0,1,0,0,0,0,0,0,0,"IN",30,"Lake George",-87.25806,41.535,"TPL                1"
"IN32",4,5,3,3,5,3,2,1,1,4,3,2,4,3,1,4,2,3,2,2,1,2,4,3,3,3,2,2,0,1,0,0,0,0,0,0,0,"IN",32,"Lake Lemon",-86.42528,39.27222,"SAP                4"
"IN37",4,5,3,2,4,3,2,1,3,2,2,4,3,3,2,4,3,3,3,2,1,4,3,3,3,3,3,3,1,0,0,0,0,0,0,0,0,"IN",37,"Sullivan Lake",-87.375,39.10167,"TPL                1"
"IN40",3,3,3,3,3,3,3,1,1,5,1,3,3,3,3,3,3,3,3,3,1,3,3,3,3,3,3,3,1,0,0,0,0,0,0,0,0,"IN",40,"Mississinewa Reservoir",-85.95833,40.70833,"TPL                2"
"IN41",3,4,3,3,4,4,3,1,4,3,2,4,3,4,2,4,5,3,2,2,1,2,4,4,4,3,2,2,0,1,0,0,0,0,0,0,0,"IN",41,"Monroe Lake",-86.51167,39,"SAP                4"
"IN46",4,4,3,4,4,4,3,3,3,3,3,2,3,3,4,3,3,2,2,2,1,2,3,4,4,3,2,2,0,1,0,0,0,0,0,0,0,"IN",46,"Lake Shafer",-86.76,40.78,"UMW                1"
"IN47",3,3,3,3,3,3,3,2,3,3,3,3,3,3,3,3,3,2,2,3,1,3,3,3,3,3,3,3,1,0,0,0,0,0,0,0,0,"IN",47,"Lake Freeman",-86.7533,40.6566,"TPL                1"
"IN49",3,4,3,3,4,3,3,2,4,2,2,3,3,4,1,4,5,5,2,3,1,4,4,3,3,3,3,3,0,1,0,0,0,0,0,0,0,"IN",49,"Patoka Lake",-86.70833,38.435,"SAP                4"
"IN5",3,3,3,3,1,4,3,4,3,1,3,3,3,3,3,3,2,3,2.1,2,1,3,3,3,3,3,3,3,1,0,0,0,0,0,0,0,0,"IN",5,"Brookville Reservoir",-85,39.44,"TPL                1"
"IN50",3,3,3,3,4,4,3,3,2,4,2,5,3,2,3,3,3,4,3,2,1,3,2,3,3,3,2,3,0,0,0,0,0,1,0,0,0,"IN",50,"Worster Lake",-86.37028,41.54944,"UMW                1"
"IN54",3,3,3,3,4,3,3,1,2,2,2,3,3,3,3,2,3,3,4,3,1,3,3,3,3,3,3,3,1,0,0,0,0,0,0,0,0,"IN",54,"Salamonie Reservoir",-85.68,40.80833,"TPL                2"
"IN6",3,4,2,2,1,3,2,3,1,1,3,3,3,3,3,3,2,3,1,1.1,1,3,3,3,4,3,3,3,1,0,0,0,0,0,0,0,0,"IN",6,"Cagle's Mill Reservoir",-86.91667,39.48667,"SAP                3"
"IN64",4,5,2,2,5,3,1,1,1,5,3,4,3,2,4,2,2,3,2,2,1,1,4,4,4,4,1,1,0,1,0,0,0,0,0,0,0,"IN",64,"West Boggs Creek Lake",-86.92,38.72,"TPL                1"
"IN7",3,3,3,3,1,3,3,1,3,1,3,3,3,4,3.4,3,2,3,2,1.8,1,3,4,3,4,3,3,3,1,0,0,0,0,0,0,0,0,"IN",7,"Harden Reservoir",-87.07167,39.71833,"TPL                3"
"IN8",2,4,2,2,4,2,2,1,1,3,4,2,2,2,2,2,2,3,3,2,1,3,3,3,3,3,3,3,1,0,0,0,0,0,0,0,0,"IN",8,"Cedarville Reservoir",-85.01833,41.19889,"TPL                2"
"KS10",3,2,3,2,1,3,3,3,4,1,1,4,3,3,4,3,2,3,3,2,1,2,2,3,3,3,2,3,1,0,0,0,0,0,0,0,0,"KS",10,"Clinton Reservoir",-95.33,38.92333,"TPL                1"
"KS11",4,5,5,2,1,4,4,2,2,1,2,4,5,4,4,4,2,5,2,2,1,4,3,2,2,3,4,4,0,0,0,0,1,0,0,0,0,"KS",11,"Coffey County Lake",-95.67645,38.19311,"TPL                3"
"KS12",3,5,3,5,3,3,3,2,3,3,1,3,3,3,3,4,2,3,3,3,1,4,4,4,3,3,3,3,1,0,0,0,0,0,0,0,0,"KS",12,"Council Grove Reservoir",-96,38.67833,"TPL                1"
"KS13",3,3,3,3,3,3,3,3,1,1,1,5,4,4,5,5,3,5,2,2,2,5,5,3,4,3,3,3,0,0,0,0,1,0,0,0,0,"KS",13,"Critzer Res ervoir",-94.92422,38.1461,"TPL                3"
"KS16",4,3,4,3,2,2,2,3,1,1,1,3,3,3,4,3,3,3,2,2,1,4,4,4,4,3,3,3,1,0,0,0,0,0,0,0,0,"KS",16,"Banner Creek Reservoir",-95.76306,39.45501,"TPL                1"
"KS17",4,3,4,3,3,4,3,3,4,5,1,3,4,4,3,4,4,3,2,4,1,2,4,4,4,3,3,3,1,0,0,0,0,0,0,0,0,"KS",17,"El Dorado Reservoir",-96.82167,37.84667,"TPL                1"
"KS18",3,2,2,2,4,3,2,1,3,3,2,2,3,4,5,3,1,3,3,4,1,2,4,4,4,3,2,2,1,0,0,0,0,0,0,0,0,"KS",18,"Elk City Lake",-96.78333,37.28167,"TPL                2"
"KS2",4,4,4,5,2,4,3,3,3,2,1,3,4,4,3,4,5,4,1.9,2,1,4,4,4,4,3,3,3,0,0,0,0,1,0,0,0,0,"KS",2,"Clark State Fishing Lake",-99.8996,37.41603,"SPL                1"
"KS20",4,3,4,3,4,3,3,1,1,4,1,1,4,4,3,4,1,3,3,4,1,4,4,4,4,4,4,4,1,0,0,0,0,0,0,0,0,"KS",20,"Fall River Reservoir",-96.07,37.64667,"TPL                2"
"KS21",4,5,4,4,5,4,3,1,4,2,1,2,4,4,5,3,2,4,2,3,1,5,5,5,4,3,4,4,1,0,0,0,0,0,0,0,0,"KS",21,"Glen Elder Reservoir",-98.31556,39.49639,"SPL                5"
"KS24",3,3,4,3,1,3,3,3,3,1,1,3,3,3,2,4,3,3,4,3,1,3,3,3,3,3,3,3,1,0,0,0,0,0,0,0,0,"KS",24,"Hillsdale",-94.89833,38.65333,"TPL                3"
"KS25",2,1,2,1,3,4,3,3,4,3,4,2,3,3,4,3,1,5,1,1,4,3,2,2,2,4,3,2,0,0,0,1,0,0,0,0,0,"KS",25,"Jeffrey Energy Center Auxiliary Make-Up Lake",-96.15303,39.23954,"TPL                3"
"KS26",3,3,3,2,1,2,2,2,1,1,1,2,3,5,3,3,1,3,4,3,1,5,5,5,4,3,3,3,0,0,0,0,1,0,0,0,0,"KS",26,"John Redmond Reservoir",-95.755,38.24167,"TPL                2"
"KS28",3,4,3,4,2,3,3,2,4,2,2,3,3,3,3,3,1,3,1,2,4,4,4,3,3,3,3,3,0,0,0,1,0,0,0,0,0,"KS",28,"Kanopolis Reservoir",-97.97,38.62167,"SPL                3"
"KS29",4,4,4,3,3,3,3,3,3,1,1,2,3,3,3,4,1,4,2,2,1,3,3,3,4,3,3,3,0,0,0,1,0,0,0,0,0,"KS",29,"Kirwin",-99.12744,39.66199,"SPL                3"
"KS30",4,3,3,4,3,3,3,2,1,2,3,4,4,3,3,3,4,5,2,2,1,3,3,3,3,3,3,3,0,0,0,0,0,0,1,0,0,"KS",30,"La Cygne Reservoir",-94.65388,38.33883,"TPL                3"
"KS31",2,1,2,2,4,2,2,3,3,1,1,2,2,2,2,1,1,1,2,1,2,3,2,2,2,3,2,2,0,0,0,0,1,0,0,0,0,"KS",31,"Lake Coldwater",-99.34969,37.24305,"SPL                5"
"KS35",4,3,4,3,5,3,3,1,4,4,2,3,3,3,4,4,1,3,1,2,3,3,3,4,4,3,4,3,0,0,0,1,0,0,0,0,0,"KS",35,"Lovewell Reservoir",-98.02681,39.89019,"SPL                5"
"KS36",3,3,3,3,2,4,3,1,1,1,2,3,3,3,3,3,2,4,2,2,1,3,3,3,3,3,3,3,0,0,0,0,1,0,0,0,0,"KS",36,"Empire Lake",-94.70356,37.06488,"SAP                3"
"KS37",3,3,3,3,5,3,3,3,3,5,3,3,3,3,3,3,3,3,2,2,3,3,3,3,3,3,3,3,0,0,0,0,1,0,0,0,0,"KS",37,"Marion Reservoir",-97.08333,38.36833,"TPL                2"
"KS39",4,5,5,5,2,4,3,3,3,2,2,5,4,4,4,4,4,5,3,2,1,4,4,3,3,3,4,4,1,0,0,0,0,0,0,0,0,"KS",39,"Melvern Lake",-95.705,38.515,"TPL                1"
"KS4",3,3,3,3,1,3,3,1,2,2,1,4,4,3,3,4,5,3,4,3,1,5,3,3,3,3,4,3,1,0,0,0,0,0,0,0,0,"KS",4,"Big Hill Lake",-95.47,37.26833,"TPL                3"
"KS40",4,4,4,4,2,4,3,3,3,1,1,5,4,4,3,4,4,3,1,3,4,4,4,4,3,3,3,3,0,0,0,0,0,0,1,0,0,"KS",40,"Milford Reservoir",-96.895,39.08333,"TPL                2"
"KS42",1,1,1,2,5,3,3,3,3,5,4,2,2,3,3,1,2,3,2,1,1,2,2,3,3,4,2,1,1,0,0,0,0,0,0,0,0,"KS",42,"Centralia City Lake",-96.16273,39.70486,"TPL                1"
"KS45",3,3.5,3,2.8,3,3,3,3,3,3.1,1.5,3,3,3,3,3,3,3,2,2,1,3,3,3,3,3,3,3,1,0,0,0,0,0,0,0,0,"KS",45,"Cedar Creek Reservoir, BB County",-94.79356,37.81879,"TPL                3"
"KS46",4,4,3,3,2,4,3,1,1,1,4,2,3,3,3,2,1,2,2,1,1,2,3,3,3,3,3,3,0,0,0,0,1,0,0,0,0,"KS",46,"Neosho Wildlife Area",-95.12981,37.47934,"TPL                1"
"KS47",3,2,3,2,3,3,2,3,4,3,3,2,3,3,3,3,3,3,3,2,4,3,3,3,3,3,3,3,0,0,0,0,1,0,0,0,0,"KS",47,"Wellington City Lake",-97.52805,37.20278,"SPL                5"
"KS48",4,4,3,4,1,3,3,3,1,1,1,4,3,3,2,3,3,3,2,2,2,4,3,4,4,3,3,3,0,0,0,1,0,0,0,0,0,"KS",48,"Keith Sebelius",-99.93112,39.80445,"SPL                3"
"KS5",3,3,3,3,2,3,3,3,1,1,1,3,3,4,3,4,4,4,2,2,1,3,4,3,3,3,3,3,0,1,0,0,0,0,0,0,0,"KS",5,"Bone Creek Reservoir",-94.73259,37.62194,"TPL                3"
"KS50",3,4,3,3,3,2,3,2,2,2,1,3,3,3,3,3,2,2,2,2,1,4,4,4,4,3,3,3,1,0,0,0,0,0,0,0,0,"KS",50,"Perry Reservoir",-95.425,39.11167,"TPL                1"
"KS52",3,3,4,3,3,3,3,3,1,3,1,3,3,3,3,2,2,3,2,2,1,3,2,3,3,3,3,3,1,0,0,0,0,0,0,0,0,"KS",52,"Pomona Reservoir",-95.55667,38.65167,"TPL                2"
"KS54",4,4,4,4,3,3,3,2,4,2,1,2,4,4,1,4,2,4,2,3,1,3,4,3,3,3,3,3,1,0,0,0,0,0,0,0,0,"KS",54,"Winfield City Lake",-96.89335,37.3499,"TPL                1"
"KS55",4,4,4,4,4,3,3,1,1,3,2,1,4,4,3,4,1,3,3,3,1,4,4,4,4,4,4,4,1,0,0,0,0,0,0,0,0,"KS",55,"Toronto Reservoir",-95.93333,37.73833,"SPL                5"
"KS56",2,2,2,3,3,2,2,2,3,3,1,2,1,4,5,2,2,3,2,2,1,1,4,3,3,3,1,2,1,0,0,0,0,0,0,0,0,"KS",56,"Tuttle Creek Reservoir",-96.59,39.25667,"TPL                2"
"KS58",4,4,4,3,3,3,3,3,3,3,2,3,3,3,3,4,3,3,2,2,2,4,4,3,4,3,3,3,0,0,0,1,0,0,0,0,0,"KS",58,"Webster Reservoir",-99.42342,39.40802,"SPL                3"
"KS60",3,2,4,2,4,3,3,1,5,4,2,3,3,3,3,3,3,2,1,3,1,4,4,3,2,3,3,3,0,0,0,1,0,0,0,0,0,"KS",60,"Wilson Reservoir",-98.495,38.96833,"SPL                1"
"KS61",3,2,3,2,1,3,3,3,3,1,1,4,2,3,3,2,1,2,2,1,1,4,2,3,2,3,3,3,0,1,0,0,0,0,0,0,0,"KS",61,"Wyandotte County Lake",-94.77526,39.16857,"TPL                3"
"KS63",3,3,3,3,2,4,3,1,1,1,1,1,3,3,3,3,1,5,1,3,1,4,4,3,3,3,4,4,0,1,0,0,0,0,0,0,0,"KS",63,"Quivera Boy Scout Lake",-96.186997,37.234668,"SPL                1"
"KS64",2,3,2,3,3,3,3,1,1,3,1,1,2,2,3,2,1,2,2,1,1,2,2,2,2,3,3,3,1,0,0,0,0,0,0,0,0,"KS",64,"Lake Kahola",-96.420829,38.523022,"TPL                3"
"KS65",3,3,2,4,3,3,3,1,3,3,2,3,3,3,3,3,1,3,3,2,1,3,4,3,3,3,3,3,1,0,0,0,0,0,0,0,0,"KS",65,"Parsons City Lake",-95.338869,37.404801,"TPL                1"
"KS66",1,1,1,1,1,3,2,3,3,1,1,2,1,1,1,3,1,2,4,2,4,1,4,4,4,3,4,3,0,0,0,0,1,0,0,0,0,"KS",66,"Horsethief Reservoir",-100.05372,38.059175,"SPL                1"
"KS68",3,2,4,2,3,3,3,3,3,1,1,2,2,2,1,2,1,4,3,2,1,3,2,3,3,3,3,3,1,0,0,0,0,0,0,0,0,"KS",68,"Middle Creek State Fishing Lake",-94.6861,38.5036,"TPL                1"
"KS69",3,3,2,2,3,3,3,3,2,3,1,2,2,2,2,2,2,4,1,1,4,2,2,2,2,3,3,3,0,0,0,0,1,0,0,0,0,"KS",69,"Carbondale City Lake",-95.6402,38.81776,"TPL                2"
"KS7",2,2,2,2,3,3,3,3,2,3,3,2,2,3,3,3,1,4.3,1,2,1,2,3,3,3,3,2,3,0,0,0,1,0,0,0,0,0,"KS",7,"Cedar Bluff Reservoir",-99.72222,38.79389,"SPL                3"
"KS70",3,3,3,3,3,3,3,3,2,3,1,2,3,3,3,3,4,3,1,1,1,3,3,3,3,3,3,3,0,1,0,0,0,0,0,0,0,"KS",70,"Eureka City Lake",-96.2904,37.8975,"TPL                2"
"KS71",3,3,3,3,4,3,3,3,1,1,1,3,3,3,3,3,1,5,3,3,1,4,4,4,3,3,4,3,1,0,0,0,0,0,0,0,0,"KS",71,"Herington City Lake",-97.0062,38.6618,"TPL                1"
"KS72",3,3,4,3,1,3,3,3,4,1,3,3,4,4,3,3,1,5,3,3,1,4,4,3,3,3,3,3,1,0,0,0,0,0,0,0,0,"KS",72,"Herington Reservoir",-96.9989,38.6691,"TPL                2"
"KS73",3,3,3,3,1,3,3,3,3,1,1,4,3,3,3,3,1,3,1,2,4,3,3,2,2,3,3,2,0,0,0,0,1,0,0,0,0,"KS",73,"Lake Shawnee",-95.8036,39.2003,"TPL                1"
"KS74",2,4,2,2,5,2,2,4,4,5,1,3,3,2,3,2,1,2,3,3,4,3,3,3,3,3,3,3,0,0,0,0,1,0,0,0,0,"KS",74,"Lake Afton",-97.6313,37.606,"SPL                3"
"KS75",3,4,4,4,3,3,3,3,3,3,2,3,3,3,3,3,2,3,2,2,1,3,3,3,3,3,3,3,0,0,0,0,1,0,0,0,0,"KS",75,"Harvey County East Lake",-97.1976,38.046,"SPL                3"
"KS76",3,3,4,3,2,3,3,3,2,2,2,2,4,3,1,4,2,4,3,2,1,3,3,4,3,3,3,3,1,0,0,0,0,0,0,0,0,"KS",76,"Council Grove City Lake",-96.55344,38.67764,"TPL                1"
"KS8",1,2,2,1,1,1,1,1,1,1,1,2,2,2,2,1,1,1,2,1,1,1,2,2,1,3,2,2,0,0,0,0,1,0,0,0,0,"KS",8,"Cedar Valley Reservoir",-95.31197,38.25708,"TPL                2"
"KS9",4,4,5,2,5,3,2,1,5,5,3,5,4,4,5,3,3,3,3,1,4,5,5,5,5,5,3,3,0,0,0,1,0,0,0,0,0,"KS",9,"Cheney Reservoir",-97.80196,37.72297,"SPL                5"
"KY10",3,3,3,4,3,3,3,5,1,1,1,4,3,3,2,4,4,4,2,1,1,4,4,3,3,3,4,2,0,1,0,0,0,0,0,0,0,"KY",10,"Dewey Lake",-82.73,37.73667,"SAP                3"
"KY11",4,4,3,4,2,3,3,3,4,2,2,3,3,4,3,3,3,3,2,3,1,3,4,4,4,3,3,3,0,1,0,0,0,0,0,0,0,"KY",11,"Herrington Lake",-84.70583,37.78556,"SAP                3"
"KY12",3,3,3,3,2,3,3,2,2,2,2,2,3,3,3,3,2,4,3,3,1,3,4,3,3,3,3,3,0,1,0,0,0,0,0,0,0,"KY",12,"doe valley lake",-86.11611,37.99861,"SAP                1"
"KY13",4,3,4,3,3,4,4,4,5,1,1,4,3,3,4,3,4,4,1,1,1,2,4,3,3,3,3,3,0,1,0,0,0,0,0,0,0,"KY",13,"Fishtrap Lake",-82.41667,37.43167,"SAP                3"
"KY14",2,2,2,2,3,3,3,3,3,3,3,2,2,2,3,2,2,3,2,1,1,2,2,2,2,2,2,2,0,1,0,0,0,0,0,0,0,"KY",14,"Grayson Lake",-82.985,38.25333,"SAP                1"
"KY15",3,3,3,3,3,3,3,4,1,3,1,3,3,3,4,3,3,3,1,2,1,4,3,3,3,3,3,3,1,0,0,0,0,0,0,0,0,"KY",15,"Green River Lake",-85.34167,37.245,"SAP                1"
"KY16",3,3,3,3,3,3,3,2,2,3,3,3,3,3,3,3,2,3,3,3,1,3,3,3,3,3,3,3,0,0,0,0,1,0,0,0,0,"KY",16,"Spotsville pool Green River",-87.40833,37.85833,"TPL                1"
"KY17",3,3,3,3,4,3,3,3,2,4,3,3,3,3,3,3,2.6,3,2,3,1,3,3,3,3,3,3,3,0,0,0,0,1,0,0,0,0,"KY",17,"Green River Calhoun pool",-87.265,37.53167,"TPL                1"
"KY18",2,3,2,2,4,3,2,4,1,5,1,2,3,3,2,3,1,4,2,2,1,3,3,4,4,3,3,3,0,0,0,0,1,0,0,0,0,"KY",18,"Green River Lock 3 Pool",-86.9,37.21333,"TPL                3"
"KY19",3,3,2,4,3,4,4,3,1,3,1,3,3,3,3,3,2,3,2,2,1,3,3,4,4,3,3,3,0,0,0,0,1,0,0,0,0,"KY",19,"Green River Lock 5 pool",-86.40333,37.16833,"TPL                3"
"KY2",4,4,4,5,3,3,3,1,1,4,4,4,4,4,3,5,5,4,2,3,1,5,5,5,4,3,4,4,0,1,0,0,0,0,0,0,0,"KY",2,"Lake Barkley",-88.22,37.02167,"SAP                3"
"KY20",3,3,2,4,3,4,3,4,1,2,1,3,3,3,3,3,1,3,2,2,1,3,3,3,3,3,3,3,0,0,0,0,1,0,0,0,0,"KY",20,"Green River Lock 6 pool",-86.26,37.20667,"TPL                3"
"KY21",3,3,4,3,2,3,3,2,3,2,2,2,3,3,3,3,3,3,3,2,1,3,3,3,3,3,3,3,0,0,0,0,1,0,0,0,0,"KY",21,"Greenup Pool",-82.85833,38.64667,"SAP                3"
"KY22",3,3,4,3.6,2,3,3,4,4,3,1,5,3,4,3,3,5,3,3,3,1,3,4,4,3,3,2,3,0,1,0,0,0,0,0,0,0,"KY",22,"Guist Creek Lake",-85.15833,38.20722,"SAP                3"
"KY23",3,3,3,3,4,3,3,3,3,4,3,3,3,3,3,3,3,3,2,3,1,3,3,3,3,3,3,3,0,0,0,0,1,0,0,0,0,"KY",23,"Uniontown Pool Ohio River",-87.95833,37.77,"TPL                1"
"KY24",4,4,4,4,3,3,3,1,1,1,2,4,4,3,4,4,4,4,2,3,2,4,4,4,4,4,4,4,1,0,0,0,0,0,0,0,0,"KY",24,"Kentukcy Lake",-88.108,36.242,"CPL                3"
"KY25",3,3,3,3,3,3,3,4,2,2,3,3,3,3,3,3,3,3,1,2,4,3,3,3,3,3,3,3,0,0,1,0,0,0,0,0,0,"KY",25,"Kentucky River Pool 11",-84.1032,37.78443,"SAP                4"
"KY26",3,3,3,3,3,3,3,3,3,3,3,2,2,3,3,3,2,4,1,2,4,2,3,3,3,3,3,3,0,0,1,0,0,0,0,0,0,"KY",26,"Kentucky River Pool 12",-83.9482,37.67731,"SAP                1"
"KY27",3,3,3,4,3,3,3,3,3,3,3,3,3,3,3,4,2,4,2,3,4,3,3,3,3,3,3,3,0,0,0,1,0,0,0,0,0,"KY",27,"Kentucky River pool 13",-83.8327,37.60166,"SAP                1"
"KY28",3,3,4,3,3,3,3,3,3,3,3,4,3,3,3,3,3,4,2,3,4,3,3,3,3,3,3,3,0,0,1,0,0,0,0,0,0,"KY",28,"Kentucky River pool 14",-83.7696,37.55246,"SAP                1"
"KY29",3,3,3,3,3,3,3,4,3,2,2,2,2,2,3,2,3,3,2,2,1,2,2,3,3,3,3,3,0,0,0,0,1,0,0,0,0,"KY",29,"Pool 5 Kentucky River",-84.8304,38.05214,"SAP                3"
"KY3",4,4,4,4,3,3,2.6,2,2,3,3,4,3,3,3,3,4,3,3,3,1,4,4,4,5,3,4,4,0,1,0,0,0,0,0,0,0,"KY",3,"Barren River Lake",-86.125,36.89667,"SAP                4"
"KY30",3,3,3,3,2,3,3,3,2,1,1,2,2,2,3,2,2,3,2,2,1,2,3,3,2,3,3,3,0,0,0,0,1,0,0,0,0,"KY",30,"Pool 6 Kentucky River",-84.8215,37.92678,"SAP                3"
"KY31",2,2,2,2,1,2,2,3,2,1,1,2,2,2,3,2,2,3,2,2,1,2,2,3,2,3,3,3,0,0,0,0,1,0,0,0,0,"KY",31,"Pool 7 Kentucky River",-84.7242,37.82954,"SAP                3"
"KY32",2,2,2,2,2,2,2,3,1,1,2,2,2,2,3,2,2,3,2,2,1,2,2,3,3,3,3,3,0,0,0,0,1,0,0,0,0,"KY",32,"Pool 8 Kentucky River",-84.5871,37.74568,"SAP                3"
"KY33",2,2,2,2,2,3,3,3,2,1,2,2,2,2,3,2,2,3,2,2,1,2,2,3,3,3,3,3,0,0,0,0,1,0,0,0,0,"KY",33,"Pool 9 Kentucky River",-84.4404,37.84329,"SAP                3"
"KY35",3,3,3,3,1,3,3,4,4,1,1,3,3,3,3,3,3,2,1,2,1,3,3,3,3,3,3,3,0,1,0,0,0,0,0,0,0,"KY",35,"Laurel River Lake",-84.27333,36.95667,"SAP                1"
"KY37",4,3,4,4,3,3,3,4,4,2,2,4,4,3,3,4,4,3,2,3,1,3,3,4,3,3,3,3,0,0,0,0,1,0,0,0,0,"KY",37,"Markland Pool",-84.965,38.77667,"SAP                3"
"KY38",1,1,2,2,3,3,3,4,4,1,1,3,2,3,3,3,3,4,2,1,1,1,4,3,4,3,3,3,0,1,0,0,0,0,0,0,0,"KY",38,"Martins Fork Lake",-83.25833,36.75167,"SAP                1"
"KY39",3,3,3,3,2,3,3,1,3,2,2,3,3,3,3,3,3,3,2,2,1,3,3,4,3,3,3,3,0,0,0,0,1,0,0,0,0,"KY",39,"McAlpine Pool",-85.76833,38.27167,"SAP                3"
"KY4",4,4,4,3,2,3,3,3,1,1,2,3,4,4,3,4,4,3,3,3,2,4,5,5,5,3,3,4,0,1,0,0,0,0,0,0,0,"KY",4,"Lake Beshear",-87.68139,37.14833,"TPL                3"
"KY40",3,3,3,3,1,3,3,3,2,2,2,4,3,4,3,3,4,3,3,3,1,4,4,3,3,3,3,3,0,1,0,0,0,0,0,0,0,"KY",40,"Lake Malone",-87.03333,37.08167,"TPL                3"
"KY41",3,3,3,3,4,3,3,2,3,2,2,3,3,4,3,3,4,3,2,3,1,4,3,4,3,3,3,3,0,0,0,0,1,0,0,0,0,"KY",41,"Newburgh Pool",-87.375,37.92833,"TPL                1"
"KY42",3,3,3,3,1,3,3,2,3,1,2,3,3,3,3,3,3,3,3,3,1,3,3,3,3,3,3,3,0,1,0,0,0,0,0,0,0,"KY",42,"Nolin River Lake",-86.245,37.27833,"TPL                3"
"KY43",3,3,3,3,4,3,3,3,1,4,2,2,2,3,3,2,2,4,3,3,2,4,4,4,4,3,3,3,0,0,0,0,1,0,0,0,0,"KY",43,"Ohio River L&D 52",-88.65167,37.12167,"TPL                1"
"KY44",3,3,3,3,4,3,3,3,1,4,2,2,2,3,3,2,2,4,3,3,2,4,4,4,4,3,3,3,0,0,0,0,1,0,0,0,0,"KY",44,"Ohio River  L&D 53",-89.03667,37.19833,"TPL                1"
"KY45",3,2,4,2,3,4,3,3,4,2,1,3,4,3,4,3,3,4,3,1,1,3,2,3,3,3,4,3,0,1,0,0,0,0,0,0,0,"KY",45,"Paintsville Lake",-82.87,37.83667,"SAP                1"
"KY46",4,4,4,3,1,3,3,1,3,1,1,4,3,2,3,3,3,4,2,1,1,4,2,2,2,2,3,4,0,1,0,0,0,0,0,0,0,"KY",46,"Lake Linville",-84.33472,37.38278,"SAP                4"
"KY47",3,3,3,3,2,3,3,3,3,2,3,3,3,3,3,3,3,3,3,3,1,3,3,3,3,3,3,3,0,1,0,0,0,0,0,0,0,"KY",47,"Rough River Lake",-86.5,37.62,"SAP                1"
"KY48",3,4,2,4,2,3,3,4,4,2,2,5,3,2,4,3,4,3,2,1,1,3,2,4,3,4,2,2,0,1,0,0,0,0,0,0,0,"KY",48,"Taylorsville Lake",-85.31667,38,"SAP                3"
"KY49",2,2,2,3,3,2,3,3,2,2,2,2,2,3,3,2,2,2,2,2,1,2,2,3,3,3,2,2,0,1,0,0,0,0,0,0,0,"KY",49,"Williamstown Lake",-84.51833,38.67667,"SAP                3"
"KY5",3,3,4,2,3,4,2,5,1,2,1,1,3,3,4,4,3,4,1,1,1,2,2,3,4,3,2,2,0,1,0,0,0,0,0,0,0,"KY",5,"Buckhorn Lake",-83.47167,37.34,"SAP                3"
"KY50",3,3,3,3,1,3,3,1,4,1,4,3,3,4,3,3,3,2,1,3,4,3,3,2,3,3,3,3,0,0,0,0,0,0,1,0,0,"KY",50,"Lake Cumberland",-85.145,36.87167,"SAP                1"
"KY51",3,3,3,3,1,3,3,3,3,3,1,3,3,3,3,3,3,4,1,3,1,3,4,3,3,3,3,3,0,1,0,0,0,0,0,0,0,"KY",51,"Wood Creek Lake",-84.19722,37.21389,"SAP                1"
"KY52",4,4,3,4,3,2,3,3,2,3,2,4,4,3,3,3,5,4,3,2,1,4,3,3,3,3,3,3,0,1,0,0,0,0,0,0,0,"KY",52,"Yatesville Lake",-82.69833,38.12667,"SAP                3"
"KY6",3,3,3,3,4,3,3,3,3,4,3,3,3,3,3,3,4,3,2,3,1,3,3,3,3,3,2.9,3,0,0,0,0,1,0,0,0,0,"KY",6,"Ohio River Cannelton pool",-84.38667,38.87722,"SAP                1"
"KY7",1,3,3,2,4,4,2,5,5,4,3,5,2,4,3,2,5,4,1,2,1,2,3,3,3,2,1,2,0,1,0,0,0,0,0,0,0,"KY",7,"Carr Creek Lake",-83.05667,37.22333,"SAP                3"
"KY77",3,3,3,3,1,3,3,1,2,1,1,5,4,4,3,4,2,5,2,4,1,4,5,3,3,2,3,4,0,1,0,0,0,0,0,0,0,"KY",77,"Cedar Creek Lake",-84.551153,37.489842,"SAP                1"
"KY8",3,3,3,3,3,3,3,3,2,3,3,3,3,3,3,3,3,3,2,3,1,3,3,3,3,3,3,3,0,1,0,0,0,0,0,0,0,"KY",8,"Cave Run Lake",-83.53333,38.11833,"SAP                1"
"KY9",3,3,4,4,2,3,3,2,3,2,1,3,3,3,3,3,3,3,2,2,1,3,3,3,3,3,3,3,0,0,0,0,1,0,0,0,0,"KY",9,"Meldahl Pool",-84.17,38.79,"SAP                3"
"LA12",4,4,4,3,1,3,3,1,1,1,1,2,3,3,3,3,2,5,2,2,1,3,3,4,4,3,4,2.5,0,1,0,0,0,0,0,0,0,"LA",12,"Bundick Lake",-93.09,30.733,"CPL                3"
"LA13",3,3,3,3,1,3,3,2,4,2,4,3,3,3,3,3,4,4,2,1,1,3,4,3,3,3,3,3,0,1,0,0,0,0,0,0,0,"LA",13,"Caddo Lake",-93.91833,32.70667,"CPL                2"
"LA14",4,5,4,3,1,3,4,1,1,1,2,3,4,4,3,4,2,3,3,2,1,4,4,4,3,3,3,3,0,1,0,0,0,0,0,0,0,"LA",14,"Cane River",-92.975,31.568,"CPL                1"
"LA15",4,4,4,3,2,3,3,2,3,1,1,4,3,4,3,3,4,3,2,2,1,4,4,4,4,3,2,3,0,1,0,0,0,0,0,0,0,"LA",15,"Caney Lake",-92.499,32.218,"CPL                3"
"LA17",3,3,3,3,2,3,3,3,3,3,2,3,3,3,3,4,3,3,2,2,2,3,3,3,3,3,3,3,1,0,0,0,0,0,0,0,0,"LA",17,"Cheniere",-92.182,32.456,"CPL                3"
"LA18",3,3,3,3,2,3,2,4,4,1,2,4,3,4,3,2,4,4,2,3,3,4,4,3,4,3,3,4,0,1,0,0,0,0,0,0,0,"LA",18,"Chicot Lake",-92.269,30.828,"CPL                1"
"LA2",3,3,3,3,4,3,3,1,1,3,3,3,3,3,3,3,1,3,2,3,1,3,3,3,3,3,3,3,0,1,0,0,0,0,0,0,0,"LA",2,"Bayou Bonne Idee",-91.714,32.662,"CPL                4"
"LA20",2,2,2,3,2,2,3,1,1,4,1,2,2,2,1,1,1,3,2,1,2,2,2,2,2,3,1,1,0,1,0,0,0,0,0,0,0,"LA",20,"Cleco/Rodemacher",-92.717,31.382,"CPL                1"
"LA23",2,2,2,3,1,2,3,1,1,1,4,1,1,2,3,2,1,4,1,1,1,1,1,2,2,3,2,2,0,1,0,0,0,0,0,0,0,"LA",23,"Corney Lake",-92.736,32.904,"CPL                2"
"LA24",3,3,3,3,1,3,3,1,1,1,1,3,3,3,1,3,2,3,3,2,2,4,3,3,3,3,3,3,0,1,0,0,0,0,0,0,0,"LA",24,"Cotile Lake",-92.733,31.338,"CPL                1"
"LA25",3,3,3,3,1,3,3,3,3,1,2,3,2,3,3,3,4,2,1,1,1,3,3,3,3,3,3,3,0,1,0,0,0,0,0,0,0,"LA",25,"Cross Lake",-93.803,32.515,"CPL                2"
"LA26",3,3,3,3,1,3,3,2,2,1,2,3,3,3,3,3,4,2,2,1,1,3,3,3,3,3,3,3,0,1,0,0,0,0,0,0,0,"LA",26,"Cypress Bayou Reservoir (Cypress Lake)",-93.664,32.652,"CPL                2"
"LA27",4,4,4,3,2,3,3,3,3,2,2,4,3,3,3,3,1,2,2,1,1,4,4,3,3,3,3,3,0,1,0,0,0,0,0,0,0,"LA",27,"Black Bayou Reservoir (Black Bayou - Bossier)",-93.668,32.648,"CPL                2"
"LA28",4,4,4,3,1,3,3,2,2,1,2,3,3,4,3,3,1,4,2,2,1,4,4,3,3,3,3,3,0,1,0,0,0,0,0,0,0,"LA",28,"Flag Lake",-93.587,32.505,"CPL                2"
"LA29",3,3,3,3,1,3,3,3,3,1,3,3,4,4,3,4,3,3,2,2,1,4,4,4,4,3,3,3,0,1,0,0,0,0,0,0,0,"LA",29,"Grand Bayou Reservoir",-93.214,31.998,"CPL                3"
"LA3",2,2,3,2,2,3,2,3,3,1,4,2,2,3,2,2,2,2,2,2,1,2,3,3,3,3,2,2,1,0,0,0,0,0,0,0,0,"LA",3,"Cocodrie Lake",-92.382,31.001,"CPL                3"
"LA30",2,2,2,3,1,2,3,2,1,1,3,1,2,2,4,2,1,3,3,1,3,2,2,3,2,3,2,2,0,1,0,0,0,0,0,0,0,"LA",30,"Iatt Lake",-92.66,31.555,"CPL                1"
"LA31",2,2,2,3,1,2,3,1,1,1,5,2,2,3,5,3,1,2,1,1,1,2,3,3,3,3,2,2,0,1,0,0,0,0,0,0,0,"LA",31,"Bodcau",-93.498,32.95,"CPL                3"
"LA32",3,3,3,3,1,2,3,1,1,1,1,4,3,3,3,3,3,2,3,2,2,3,3,3,2,3,3,3,0,1,0,0,0,0,0,0,0,"LA",32,"Indian Creek Lake",-92.46,31.128,"CPL                1"
"LA35",3,4,3,3,2,3,3,1,1,1,1,2,3,3,3,3,2,3,3,2,2,3,3,3,3,3,3,3,0,1,0,0,0,0,0,0,0,"LA",35,"Red River Pool 2",-92.29333,31.18667,"CPL                1"
"LA36",3,3,3,3,1,3,3,1,1,1,4,3,3,3,3,3,1,2,3,3,3,3,3,3,3,3,3,3,0,0,0,0,1,0,0,0,0,"LA",36,"Catahoula Lake",-91.86167,31.48333,"CPL                1"
"LA37",3,3,3,3,3,3,3,1,1,3,3,2,3,3,3,3,1,4,2,2,2,4,4,3,3,3,3,3,0,0,0,0,1,0,0,0,0,"LA",37,"Black River",-91.86167,31.48333,"CPL                1"
"LA38",2,2,2,3,1,2,3,2,2,1,2,2,1,2,3,2,1,3,1,1,1,2,2,2,2,3,2,2,0,1,0,0,0,0,0,0,0,"LA",38,"Kepler Lake",-93.153,32.317,"CPL                2"
"LA39",2,2,2,3,1,2,3,3,1,1,1,2,2,3,3,2,2,2,3,1,1,2,3,3,2,3,3,3,0,1,0,0,0,0,0,0,0,"LA",39,"Kincaid Lake",-92.614,31.282,"CPL                1"
"LA40",3,3,3,3,1,3,3,2,2,2,3,3,3,3,4,3,3,3,2,1,1,3,3,3,3,3,3,3,0,1,0,0,0,0,0,0,0,"LA",40,"Lake Bistineau",-93.427,32.327,"CPL                2"
"LA41",3,3,3,3,1,3,3,3,2,2,2,2,3,3,3,3,3,2,1,1,1,3,3,3,3,3,3,3,0,1,0,0,0,0,0,0,0,"LA",41,"Lake Claiborne",-92.904,32.739,"CPL                3"
"LA42",3,3,3,3,2,3,3,3,2,2,3,3,3,2,3,3,2,3,2,3,1,3,3,3,3,2,3,3,1,0,0,0,0,0,0,0,0,"LA",42,"Lake Martin",-91.906,30.222,"CPL                1"
"LA45",3,3,3,3,1,3,3,1,1,1,3,3,3,3,4,3,1,4,2,3,2,3,3,3,3,3,3,3,1,0,0,0,0,0,0,0,0,"LA",45,"French Fork Old River",-91.97833,31.57833,"CPL                1"
"LA46",2,2,2,3,4,1,2,1,2,1,1,2,1,1,2,2,1,5,3,1,1,1,1,3,2,4,3,2,0,1,0,0,0,0,0,0,0,"LA",46,"Anacoco Lake",-93.384,31.092,"CPL                3"
"LA47",1,1,1,2,1,1,2,2,2,1,2,1,1,1,3,1,1,2,1,1,1,1,1,1,1,3,1,1,0,1,0,0,0,0,0,0,0,"LA",47,"Mill Creek Reservoir",-92.99,32.17,"CPL                3"
"LA48",3,3,3,3,2,3,3,2,2,2,3,4,4,3,3,3,3,3,2,2,1,3,3,3,3,3,3,3,0,1,0,0,0,0,0,0,0,"LA",48,"Miller's Lake",-92.378,30.755,"CPL                3"
"LA49",3,3,3,3,1,3,3,2,1,1,1,3,3,3,3,3,2,4,3,2,1,3,3,3,3,3,3,3,0,1,0,0,0,0,0,0,0,"LA",49,"Nantachie Lake",-92.785,31.604,"CPL                1"
"LA5",3,3,3,3,3,3,3,3,1,3,2,2,3,3,3,3,1,3,2,2,2,3,3,3,3,3,3,3,0,1,0,0,0,0,0,0,0,"LA",5,"Bayou DeSiard",-92.12,32.554,"CPL                4"
"LA50",5,4,4,4,4,4,3,3,4,3,1,3,4,4,4,3,3,5,2,3,1,3,3,4,4,3,3,3,1,0,0,0,0,0,0,0,0,"LA",50,"Poverty Point",-91.491,32.483,"CPL                3"
"LA51",3,4,3,3,1,3,3,2,1,2,1,3,3,3,3,3,3,3,3,2,2,3,3,3,3,3,3,3,0,1,0,0,0,0,0,0,0,"LA",51,"Red River Pool 3",-92.68333,31.48333,"CPL                1"
"LA53",3,3,3,3,1,3,3,2,1,1,2,3,3,3,3,3,3,3,3,2,2,3,3,3,3,3,3,3,0,1,0,0,0,0,0,0,0,"LA",53,"saline lake",-92.932,31.853,"CPL                1"
"LA54",4,4,4,3,4,2,3,2,1,1,1,3,4,3,3,3,1,3,3,2,2,4,2,3,2,3,3,3,1,0,0,0,0,0,0,0,0,"LA",54,"Sibley Lake",-93.758,31.755,"CPL                1"
"LA55",1,1,1,2,1,2,2,1,1,1,5,1,1,2,4,1,1,2,1,1,1,1,2,2,2,4,2,2,0,1,0,0,0,0,0,0,0,"LA",55,"Clear / Smithport Lake",-93.563,32.116,"CPL                2"
"LA56",1,5,1,2,5,1,1,1,1,5,1,1,1,1,1,1,1,1,3,3,4,3,4,3,3,3,1,3,0,0,0,0,1,0,0,0,0,"LA",56,"Spanish Lake",-91.862,30.071,"CPL                3"
"LA57",3,3,3,3,2,3,3,3,3,3,3,4,3,3,3,3,3,3,3,2,2,3,3,3,3,3,3,3,0,1,0,0,0,0,0,0,0,"LA",57,"Toledo Bend Reservoir",-93.5684,31.1857,"CPL                3"
"LA58",3,4,3,3,5,3,3,1,1,5,3,2,4,3,3,4,3,4,2,4,1,3,4,4,4,3,3,3,1,0,0,0,0,0,0,0,0,"LA",58,"Turkey Creek",-91.771,31.905,"CPL                3"
"LA6",2,2,2,3,1,2,3,2,2,2,4,2,2,3,4,2,2,2,2,1,1,2,3,3,2,3,2,2,0,1,0,0,0,0,0,0,0,"LA",6,"Black Bayou Lake at Hosston (Caddo Parish)",-93.898,32.882,"CPL                2"
"LA60",3,3,3,3,1,1,3,5,1,1,1,3,3,4,4,3,2,5,3,3,1,3,4,2,3,3,3,3,0,1,0,0,0,0,0,0,0,"LA",60,"Vernon Lake",-93.358,31.177,"CPL                3"
"LA61",1,1,1,2,1,2,2,1,1,1,5,2,1,2,4,1,1,2,1,1,1,1,2,2,2,4,2,2,0,1,0,0,0,0,0,0,0,"LA",61,"Wallace Lake",-93.67,32.31667,"CPL                2"
"LA7",3,4,3,3,1,3,3,1,2,1,1,1,3,3,4,3,4,3,3,2,2,3,3,3,3,3,3,3,0,1,0,0,0,0,0,0,0,"LA",7,"Black-Clear Lake",-92.952,31.855,"CPL                1"
"MD13",3,3,3,3,1,3,3,1,1,1,2,2,3,4,3,4,2,3,3,4,1,2,5,3,3,3,3,3,0,1,0,0,0,0,0,0,0,"MD",13,"Prettyboy Reservoir",-76.7074,39.6196,"SAP                4"
"MD15",3,3,3,3,1,3,3,1,3,1,1,2,3,3,3,3,2,2,2,2,2,3,3,3,3,3,3,3,0,1,0,0,0,0,0,0,0,"MD",15,"Savage River Reservoir",-79.13445,39.5075,"SAP                1"
"MD3",3,4,2,2,2,2,2,2,2,3,1,2,2,2,3,3,3,3,3,3,1,3,3,4,4,3,3,3,0,1,0,0,0,0,0,0,0,"MD",3,"Conowingo Pool",-76.1735,39.661,"SAP                3"
"MD4",4,4,4,4,2,4,4,1,1,1,2,4,4,5,1,4,4,3,2,2,1,4,4,3,3,3,3,3,0,1,0,0,0,0,0,0,0,"MD",4,"Deep Creek Lake",-79.3916,39.5091,"SAP                4"
"MD5",3,3,3,3,1,3,3,3,3,1,1,2,2,3,3,3,2,2,2,2,1,2,3,3,3,3,3,3,0,1,0,0,0,0,0,0,0,"MD",5,"Jennings Randolph Lake",-79.07167,39.48022,"SAP                1"
"MD7",4,2,4,3,1,3,3,1,1,3,1,5,3,3,3,3,1,4,4,4,1,5,5,3,3,3,4,4,0,1,0,0,0,0,0,0,0,"MD",7,"Little Seneca Lake",-77.3,39.185,"SAP                4"
"MI14",2,3,2,2,1,3,2,3,1,1,1,1,2,2,3,3,1,2,2,2,1,2,2,3,3,3,3,3,0,0,0,0,0,1,0,0,0,"MI",14,"Barton Pond",-83.7543,42.3083,"TPL                3"
"MN102",3,3,3,3,1,2,2,3,1,1,4,1,3,4,2,3,1,3,2,3,1,3,4,3,3,3,3,3,0,0,0,0,0,1,0,0,0,"MN",102,"Rabideau Lake",-94.5434,47.63176,"UMW                1"
"MN11",3,3,3,3,1,3,3,1,1,1,1,4,3,3,4,4,1,3,2,3,1,3,3,3,4,3,4,4,0,0,0,1,0,0,0,0,0,"MN",11,"Boulder Lake Reservoir",-92.2,47.0517,"UMW                1"
"MN112",2,3,2,2,1,3,3,1,1,1,3,4,2,2,3,2,2,3,2,2,1,2,2,4,2,3,4,2,0,0,0,1,0,0,0,0,0,"MN",112,"Big Sandy Lake",-93.31967,46.78792,"UMW                1"
"MN114",3,3,3,3,3,4,4,1,1,1,3,4,3,4,3,3,3,3,2,4,1,4,4,4,4,3,3,3,0,1,0,0,0,0,0,0,0,"MN",114,"Mississippi River",-94.2,45.6167,"UMW                1"
"MN119",4,3,4,3,3,3,3,1,1,1,2,3,4,4,2,3,2,3,3,4,1,4,4,3,3,3,4,4,0,1,0,0,0,0,0,0,0,"MN",119,"Mississippi River",-94.15,45.55,"UMW                1"
"MN124",3,3,2,4,3,3,3,3,1,1,3,3,2,3,3,3,2,3,3,2,1,4,3,3,4,3,3,3,0,0,0,0,0,1,0,0,0,"MN",124,"Sylvan Lake",-94.3783,46.305,"UMW                1"
"MN128",3,2,3,3,3,3,3,1,1,1,1,1,1,3,1,3,1,3,2,2,1,3,2,3,1,4,3,3,0,0,0,1,0,0,0,0,0,"MN",128,"Thomson",-92.4067,46.665,"UMW                1"
"MN145",3,2,4,2,1,3,3,1,1,1,1,2,3,2,3,3,1,3,3,1,1,3,3,3,2,4,3,3,0,0,0,1,0,0,0,0,0,"MN",145,"Whiteface Reservoir",-92.1917,47.28,"UMW                1"
"MN149",3,3,3,3,1,3,3,1,1,4,4,3,3,4,3,3,1,4,2,3,1,3,4,3,4,3,3,3,0,0,0,1,0,0,0,0,0,"MN",149,"Wild Rice",-92.1617,46.91,"UMW                1"
"MN154",3,3,2,1,4,2,2,4,1,1,2,2,3,2,4,3,1,5,2,2,1,2,3,3,3,4,2,2,1,0,0,0,0,0,0,0,0,"MN",154,"Grindstone Reservoir",-93.007429,46.125218,"UMW                1"
"MN155",4,3,4,3,1,3,3,1,1,1,1,4,4,3,2,4,1,4,3,3,1,3,4,4,3,3,3,3,0,0,0,0,0,1,0,0,0,"MN",155,"Bear Creek Reservoir",-92.314539,43.98948,"UMW                1"
"MN21",5,4,4,3,3,3,3,3,1,1,2,4,4,4,2,2,3,3,2,2,1,2,4,4,4,3,2,2,0,0,0,0,0,1,0,0,0,"MN",21,"Horseshoe Chain of Lakes",-94.42285,45.4554,"UMW                1"
"MN36",3,3,3,3,1,3,3,1,1,1,4,5,4,3,3,2,4,2,2,3,1,3,3,3,2,2,2,2,0,0,0,1,0,0,0,0,0,"MN",36,"Fish Lake Reservoir",-92.2783,46.9567,"UMW                1"
"MN52",4,1,5,2,1,4,2,1,4,1,1,3,4,1,3,2,5,2,3,1,1,5,1,2,1,4,4,4,0,0,0,1,0,0,0,0,0,"MN",52,"Island Lake Reservoir",-92.225,46.9917,"UMW                1"
"MN57",3,3,3,3,3,4,3,4,1,3,1,3,3,3,3,2,1,3,2,2,1,2,3,3,3,3,3,3,0,0,0,1,0,0,0,0,0,"MN",57,"Lake Byllesby",-92.9333,44.5167,"TPL                1"
"MN61",3,3,4,3.2,2,4,3,1,1,1,1,3,3,3,3,3,2,3,3,4,1,3,4,4,4,2,2,2,0,1,0,0,0,0,0,0,0,"MN",61,"Mississippi River",-94.3678,45.9756,"UMW                1"
"MN9",3,3,3,3,1,3,3,3,3,1,1,3,3,3,3,3,1,3,1,2,3,3,3,3,3,3,3,3,0,0,0,1,0,0,0,0,0,"MN",9,"Blandin Reservoir",-93.53,47.2317,"UMW                1"
"MN94",3,4,3,4,1,3,3,1,1,1,3,3,2,3,3,2,1,3,1,2,1,3,4,3,4,3,4,3,0,0,0,1,0,0,0,0,0,"MN",94,"Placid Lake",-94.485,46.315,"UMW                1"
"MO11",4,4,4,4,1,4,4,1,1,1,3,4,3,5,3,4,3,2,2,3,1,4,5,4,3,3,3,3,1,0,0,0,0,0,0,0,0,"MO",11,"Duck Creek Pool #1",-90.10139,37.0225,"CPL                1"
"MO14",3,3,3,3,4,3,3,3,1,1,2,3,3,3,3,3,1,4,2,1,1,4,2,2,2,3,3,3,1,0,0,0,0,0,0,0,0,"MO",14,"Edwin Pape Lake (Concordia)",-93.5817,38.93336,"TPL                3"
"MO15",3,3,3,3,2,3,3,1,3,3,1,2,2,3,3,2,1,5,2,3,1,3,3,3,3,3,3,3,1,0,0,0,0,0,0,0,0,"MO",15,"Fellows Lake",-93.23102,37.31481,"SAP                1"
"MO16",3,3,3,3,3,3,4,3,2,1,1,4,3,3,3,4,4,3,3,2,1,4,3,3,2,1,4,4,0,1,0,0,0,0,0,0,0,"MO",16,"Forest Lake",-92.65822,40.16961,"TPL                3"
"MO18",3,4,3,4,3,3,3,1,1,1,2,1,3,3,3,3,1,4,2,2,1,3,3,3,3,3,3,3,0,1,0,0,0,0,0,0,0,"MO",18,"Harrisonville City Lake",-94.32583,38.76444,"TPL                3"
"MO19",4,4,4,3,3,4,2,4,1,4,3,5,4,3,3,3,5,5,1,1,1,4,1,2,1,3,5,4,0,0,0,0,1,0,0,0,0,"MO",19,"Truman Reservori",-93.40167,38.26667,"SAP                3"
"MO2",3,3,3,3,3,3,3,3,3,3,3,3,3,3,3,3,3,3,3,3,3,3,3,3,3,3,3,3,0,0,0,0,0,1,0,0,0,"MO",2,"Alpine Lake",-91.08155,38.7492,"TPL                1"
"MO20",3,3,3,3,2,3,3,2,3,1,1,2,3,4,3.2,3,2,4,2,2,2,3,4,3,3,3,2,3,0,1,0,0,0,0,0,0,0,"MO",20,"Hazel Creek Lake",-92.62907,40.29973,"TPL                1"
"MO21",3,3,3,3,4,3,3,3,1,2,2,3,3,2,3,2.3,1,1,3,1,1,4,2,2,2,3,4,4,1,0,0,0,0,0,0,0,0,"MO",21,"Holden City Lake",-94.0348,38.76115,"TPL                1"
"MO22",3,3,3,3,3,3,3,3,3,2,1,2,4,3,1,3,1,4,3,2,2,4,3,3,3,2,3,3,0,1,0,0,0,0,0,0,0,"MO",22,"Indian Hills",-91.4575,38.1075,"SAP                4"
"MO23",4,3,4,4,1,3,3,3,1,1,1,4,3,4,3,3,3,4,2,3,1,3,4,4,4,2,3,3,0,1,0,0,0,0,0,0,0,"MO",23,"Lake Jacomo",-94.3079,38.99298,"TPL                3"
"MO24",4,4,3,4,4,3,3,3,2,3,2,2,4,4,3,4,3,2,2,3,1,4,4,3,3,3,3,3,0,1,0,0,0,0,0,0,0,"MO",24,"Lake Lotawana",-94.2468,38.93564,"TPL                3"
"MO25",3,4,1,5,4,2,1,3,2,3,4,1,1,4,1,3,1,2,3,2,4,3,2,2,2,4,1,1,0,0,0,0,1,0,0,0,0,"MO",25,"Lake Paho",-93.65619,40.3991,"TPL                2"
"MO26",3,4,3,3,2,3,3,1,1,3,1,4,3,4,3,3,1,3,2,2,1,3,3,3,3,3,3,3,0,0,0,0,1,0,0,0,0,"MO",26,"Lake Springfield",-93.26366,37.1121,"SAP                4"
"MO27",3,3,3,3,3,3,3,4,1,3,2,3,3,3,2,4,4,4,3,3,1,3,4,4,3.8,3.1,3,3.1,0,1,0,0,0,0,0,0,0,"MO",27,"Lake St. Louis",-90.7652,38.80179,"TPL                1"
"MO29",3,4,2,5,4,3,3,2,1,3,1,4,3,3,3,3,1,2,3,2,1,3,2,3,2,3,2,2,0,1,0,0,0,0,0,0,0,"MO",29,"Lake Viking",-94.05677,39.9381,"TPL                1"
"MO3",2,4,2,2,3,4,2,1,1,3,1,4,3,3,4,3,1,4,3,4,1,4,3,3,2,3,2,3,0,0,0,0,1,0,0,0,0,"MO",3,"Atkinson Lake",-94.04638,38.00633,"TPL                2"
"MO30",3,3,3,4,4,3,3,3,1,3,2,2,4,4,3,4,2,2,3,3,1,4,4,3,3,3,3,3,0,1,0,0,0,0,0,0,0,"MO",30,"Lake Winnebago",-94.35561,38.81785,"TPL                3"
"MO35",3,3,3,3,5,4,4,3,1,5,2,3,3,3,3,3,3,4,1,2,1,3,3,3,3,3,3,3,0,0,0,0,1,0,0,0,0,"MO",35,"Mississippi River Pool 24",-90.90108,39.37905,"TPL                2"
"MO36",3,3,3,3,5,4,4,2,1,5,2,3,3,3,3,3,3,3,1,2,1,3,3,3,3,3,3,3,0,0,0,0,1,0,0,0,0,"MO",36,"Upper Mississippi River Pool 25",-90.68385,39.00617,"TPL                2"
"MO37",3,3,3,3,5,3,3,1,1,5,3,3,3,3,3,3,2,2,2,2,1,3,3,3,3,3,3,3,0,0,0,0,1,0,0,0,0,"MO",37,"Sandy Slough",-90.70475,39.02296,"TPL                2"
"MO38",2,4,2,2,4,3,4,1,4,2,2,2,2,2,2,2,3,3,1,3,1,1,4,3,2,3,2,2,0,1,0,0,0,0,0,0,0,"MO",38,"Long Branch Lake",-92.51333,39.75167,"TPL                1"
"MO39",3,3.3,3,2,4,3,3,4,1,3,2,4,3,3,2,3,3,3,2,3,1,3,4,4,3,3,3,3,0,1,0,0,0,0,0,0,0,"MO",39,"Longview Lake",-94.46833,38.92667,"TPL                3"
"MO40",3,4,3,3,3,2,3,1,1,1,1,1,1,3,1,1,1,5,4.2,2,1,4,2,2,2,3,3,3,0,1,0,0,0,0,0,0,0,"MO",40,"McDaniel Lake",-93.31439,37.29469,"SAP                1"
"MO41",3,3,3,3,5,4,4,3,1,5,2,3,3,3,3,3,2,4,1,2,1,3,3,3,3,3,3,3,0,0,0,0,1,0,0,0,0,"MO",41,"Upper Mississippi River Pool 20",-91.5149,40.1433,"TPL                2"
"MO42",3,3,3,3,5,4,4,3,1,5,2,3,3,3,3,3,2,4,1,2,1,3,3,3,3,3,3,3,0,0,0,0,1,0,0,0,0,"MO",42,"Upper Mississippi River Pool 21",-91.4288,39.903,"TPL                2"
"MO43",3,3,3,3,5,4,4,3,1,5,2,3,3,3,3,3,2,4,1,2,1,3,3,3,3,3,3,3,0,0,0,0,1,0,0,0,0,"MO",43,"Upper Mississippi River Pool 22",-91.2487,39.6354,"TPL                2"
"MO44",5,3,4,2,4,2,2,1,1,3,2,3,3,4,3,3,1,4,2,1,1,4,2,2,2,4,5,4,0,0,0,0,1,0,0,0,0,"MO",44,"Montrose Lake",-93.91695,38.30861,"TPL                1"
"MO45",4,5,4,4,3,3,3,4,1,4,2,5,4,4,4,4,5,5,3,2,1,4,4,4,4,4,4,4,0,1,0,0,0,0,0,0,0,"MO",45,"Mozingo Lake",-94.77625,40.34748,"TPL                3"
"MO46",3,3,3,3,4,3,3,3,4,4,1,3,3,2,3,2,1,2,3,2,1,2,2,2,2,3,3,3,0,1,0,0,0,0,0,0,0,"MO",46,"Lake Nehai",-92.89191,39.5904,"TPL                3"
"MO47",3,4,3,3,3,3,3,3,3,4,3,5,3,3,2,3,5,3,2,2,1,3,3,4,3,3,4,3,0,1,0,0,0,0,0,0,0,"MO",47,"Lake of the Ozarks",-92.6248,38.2031,"SAP                3"
"MO48",3,3,3,3,3,4,2,4,1,3,4,3,4,2,3,4,3,4,3,3,1,4,3,3,2,3,3,3,0,1,0,0,0,0,0,0,0,"MO",48,"Pomme de Terre",-93.32,37.90167,"SAP                3"
"MO5",3,3,2,2,5,3,2,3,1,1,1,2,2,2,3,2,2,2,2.8,3.2,1.9,1,4,4,4,2,2,2,0,1,0,0,0,0,0,0,0,"MO",5,"Blue Springs Lake",-94.33833,39.01833,"TPL                1"
"MO50",2,4,2,2,4,3,2,3,1,1,2,3,2,2,3,3,2,3,2,3,1,2,4,3,3,4,2,2,0,1,0,0,0,0,0,0,0,"MO",50,"Prairie Lee Lake",-94.33096,38.94431,"TPL                1"
"MO51",4,4,3.8,3,4,3,3,3,3,3,3,1,4,3,3,2,1,2,2,2,1,3,4,4,4,3,3,3,0,1,0,0,0,0,0,0,0,"MO",51,"Raintree Lake",-94.38159,38.83459,"TPL                3"
"MO52",3,3,2,2,3,3,3,3,3,3,3,3,3,2,3,3,3,3,2,1,1,3,2,3,3,3,3,3,0,1,0,0,0,0,0,0,0,"MO",52,"Smithville Reservoir",-94.555,39.39833,"TPL                1"
"MO56",3,4,3,4,1,4,3,5,1,1,1,3,4,4,3,4,3,4,2,2,1,3,4,5,4,3,3,3,1,0,0,0,0,0,0,0,0,"MO",56,"Stockton Lake",-93.75833,37.69167,"SAP                1"
"MO58",3,4,3,3,2,3,3,3,1,1,2,3,3,2,3,3,3,3,3,2,1,3,2,3,2,3,3,2,0,1,0,0,0,0,0,0,0,"MO",58,"Sugar Creek Lake",-92.47917,39.47361,"TPL                3"
"MO61",5,5,5,5,2,4,3,4,1,2,2,5,4,4,3,5,5,3,2,3,1,3,3,4,4,3,3,3,0,1,0,0,0,0,0,0,0,"MO",61,"Table Rock Lake",-93.30833,36.595,"SAP                1"
"MO63",3,3,4,3,2,3,2.2,1,3,2,2,4,3,4,3,4,3,4,3,2,1,4,4,4,4,2,4,4,1,0,0,0,0,0,0,0,0,"MO",63,"Thomas Hill Reservoir",-92.6445,39.55104,"TPL                1"
"MO64",2,2,2,3,4,2,2,1,1,3,3,2,3,3,3,3,1,4,3,2,1,3,4,3,3,3,3,3,0,0,0,0,1,0,0,0,0,"MO",64,"Lake Niangua",-92.8517,37.9383,"SAP                3"
"MO65",3,3,3,3,1,3,3,3,1,1,1,4,4,3,3,3,3,5,2,2,2,3,4,3,3,3,4,3,0,1,0,0,0,0,0,0,0,"MO",65,"Wappapello",-90.27982,36.93151,"SAP                3"
"MO7",3,3,2,2,3,3,3,3,1,1,3,3,4,2,3,3,3,3,3,1,1,5,2,2,2,4,5,4,1,0,0,0,0,0,0,0,0,"MO",7,"Mark Twain Lake",-91.64491,39.52595,"TPL                1"
"MO8",3,3,3,3,5,3,3,1,1,3,5,3,3,3,3,3,1,5,3,1,1,4,2,2,2,4,4,4,1,0,0,0,0,0,0,0,0,"MO",8,"Salt River Re-regulation Pool",-91.6498,39.5453,"TPL                2"
"MO9",3,3,3,3,2,3,3,1,1,1,1,4,4,4,3,4,4,3,2,2,1,3,4,3,1,4,2,2.1,1,0,0,0,0,0,0,0,0,"MO",9,"Clearwater Lake",-90.77167,37.13667,"SAP                3"
"MS10",3,3,3,3,1,1,1,1,1,1,1,4,3,3,3,3,1,3,2,3,1,3,3,3,3,3,3,3,0,0,0,0,0,1,0,0,0,"MS",10,"Bluff Lake",-88.783743,33.279496,"CPL                3"
"MS15",2,2,2,3,1,1,1,1,1,1,1,3,3,2,3,3,3,3,2,1,1,5,1,1,1,3,5,5,0,1,0,0,0,0,0,0,0,"MS",15,"Elvis Presley Lake",-88.6583,34.2967,"CPL                1"
"MS16",2,2,2,2,1,3,3,1,1,3,2,3,4,4,3,3,3,3,3,3,1,3,4,4,5,2,1,3,1,0,0,0,0,0,0,0,0,"MS",16,"Enid Lake",-89.82167,34.15833,"CPL                4"
"MS18",3,3,3,3,1,2,2,1,1,1,1,3,3,3,3,3,3,4,3,3,1,3,4,4,4,3,3,3,0,1,0,0,0,0,0,0,0,"MS",18,"Lock C",-90.1926,33.0297,"CPL                2"
"MS2",3,4,3,4,1,3,3,2,1,1,1,4,3,3,3,3,4,5,3,3,1,4,4,4,4,3,3,3,1,0,0,0,0,0,0,0,0,"MS",2,"Aberdeen Lake",-88.52,33.83,"CPL                2"
"MS20",3,3,3,3,1,2,2,1,1,1,1,4,3,3,3,4,1,4,4,4,1,3,5,5,4,3,3,3,0,1,0,0,0,0,0,0,0,"MS",20,"Lock E",-88.365,34.46333,"CPL                2"
"MS21",3,3,3,3,1,2,2,1,1,1,1,4,3,3,3,3,3,3,3,3,1,3,3,3,3,3,4,4,1,0,0,0,0,0,0,0,0,"MS",21,"Lock B",-88.425,34.065,"CPL                2"
"MS22",3,3,3,4,2,2,3,2,1,3,2,3,3,4,3,4,4,4,4,4,1,3,5,4,5,2,1,3,1,0,0,0,0,0,0,0,0,"MS",22,"Grenada Lake",-89.77167,33.80833,"CPL                4"
"MS23",4,3,4,2,1,2,2,2,1,1,1,5,5,4,3,4,5,3,2,3,1,4,4,3,4,3,3,4,0,1,0,0,0,0,0,0,0,"MS",23,"Bay Springs Reservoir",-88.325,34.525,"CPL                1"
"MS24",3,4,3,4,1,3,3,2,1,1,1,5,3,3,3,3,5,5,3,3,1,4,4,4,4,3,3,3,1,0,0,0,0,0,0,0,0,"MS",24,"Columbus Lake",-88.49,33.51667,"CPL                2"
"MS25",2,2,2,3,1,2,2,1,1,1,1,3,2,2,3,2,3,3,4,2,1,3,2,3,3,3,3,3,0,1,0,0,0,0,0,0,0,"MS",25,"Lock D",-88.408423,34.362553,"CPL                2"
"MS26",3,2,3,2,1,2,2,3,1,1,1,2,3,2,2,3,2,4,3,1,1,3,2,2,2,3,4,4,0,1,0,0,0,0,0,0,0,"MS",26,"Kemper County Lake",-88.715,32.8067,"CPL                1"
"MS27",3,3,4,3,1,3,3,3,3,2,1,2,3,3,3,3,1,5,3,3,2,3,3,3,3,3,3,3,0,1,0,0,0,0,0,0,0,"MS",27,"Lake Bill Waller",-89.71667,31.19,"CPL                1"
"MS28",3,3,3,3,2,3,3,3,1,2,1,5,4,3,3,5,3,3,2,2,2,3,3,4,4,3,3,4,0,1,0,0,0,0,0,0,0,"MS",28,"Lake Bogue Homa",-89.025,31.7033,"CPL                1"
"MS29",4,3,4,3,1,2,3,3,1,1,1,4,4,4,3,3,2,2,3,3,1,4,3,3,3,3,3,3,0,1,0,0,0,0,0,0,0,"MS",29,"Lake Calling Panther",-90.4808,31.9708,"CPL                1"
"MS3",3,3,3,3,1,2,2,1,1,1,1,2,3,3,3,3,1,4,2,3,1,3,3,3,3,3,4,4,1,0,0,0,0,0,0,0,0,"MS",3,"Lock A",-88.48892,34.012209,"CPL                2"
"MS33",3,3,3,3,1,1,1,1,1,1,1,5,3,3,4,3,3,4,3,4,1,3,4,3,4,3,3,3,0,0,0,0,0,1,0,0,0,"MS",33,"Lake Lamar Bruce",-88.6694,34.3867,"CPL                1"
"MS35",4,3,4,3,2,3,3,4,2,2,1,3,3,4,3,4,3,3,2,4,1,3,4,4,3,3,3,3,0,1,0,0,0,0,0,0,0,"MS",35,"Lake Lincoln",-90.3267,31.6783,"CPL                1"
"MS38",3,3,3,3,1,1,1,2,1,1,1,2,3,3,3,3,1,3,2,2,2,3,3,3,3,3,3,3,0,1,0,0,0,0,0,0,0,"MS",38,"Loakfoma Lake",-88.778414,33.260686,"CPL                3"
"MS43",3,2,3,2,1,3,3,3,2,1,1,2,4,2,3,3,2,3,4,3,1,3,2,2,2,3,3,3,1,0,0,0,0,0,0,0,0,"MS",43,"Okatibbee Reservoir",-88.79833,32.475,"CPL                1"
"MS44",3,4,3,4,1,1,1,2,2,1,1,3,2,5,3,3,1,3,2,4,2,2,5,5,5,3,1,1,0,1,0,0,0,0,0,0,0,"MS",44,"Oktibbeha County Lake",-88.93166,33.505,"CPL                2"
"MS46",3,2,3,3,1,3,3,1,1,1,1,3,2,3,3,2,3,2,2,2,2,3,2,2,2,3,3,4,1,0,0,0,0,0,0,0,0,"MS",46,"Geiger Lake",-89.23833,31.13389,"CPL                1"
"MS47",4,3,4,3,2,3,3,3,2,2,1,3,3,4,3,4,3,3,3,3,1,3,4,4,3,3,3,3,0,1,0,0,0,0,0,0,0,"MS",47,"Lake Tangipahoa",-90.5286,31.175,"CPL                1"
"MS48",3,3,3,3,1,3,3,3,3,1,1,4,4,4,3,4,5,3,3,4,1,3,4,4,4,3,3,3,1,0,0,0,0,0,0,0,0,"MS",48,"Ross Barnett Reservoir",-90.06361,32.40222,"CPL                1"
"MS49",3,3,3,3,1,3,3,1,1,3,3,4,4,4,3,4,4,4,4,4,1,4,4,4,5,2,1,3,1,0,0,0,0,0,0,0,0,"MS",49,"Sardis Lake",-89.7868,34.4,"CPL                4"
"MS53",3,3,3,3,1,1,1,1,1,1,1,4,3,2,3,3,2,2,2,2,1,3,4,3,3,3,3,3,0,0,0,0,0,1,0,0,0,"MS",53,"Trace State Park",-88.895,34.2367,"CPL                1"
"MS58",3,4,2,4,1,1,2,1,1,1,2,3,3,2,3,2,1,4,2,2,1,3,2,2,2,3,3,3,0,1,0,0,0,0,0,0,0,"MS",58,"Whites Creek Lake",-89.2756,33.5536,"CPL                3"
"MS6",4,4,3,3,1,2,3,1,1,2,2,2,2,4,3,3,1,3,4,4,1,2,4,4,5,2,1,3,1,0,0,0,0,0,0,0,0,"MS",6,"Arkabutla Lake",-90.12333,34.75667,"CPL                4"
"MT10",5,5,4,5,2,3,3,1,5,4,2,5,3,4,5,3,1,2,3,4,4,3,5,5,5,3,2,2,0,0,0,0,0,0,0,1,0,"MT",10,"Cooney Reservoir",-109.2014,45.4499,"NPL                2"
"MT100",4,4,4,3,1,1,1,1,5,3,4,3,3,5,5,4,1,5,4,4,4,4,5,5,5,3,3,3,0,0,0,0,0,0,0,1,0,"MT",100,"Yellow Water Reservoir",-108.4712,46.9023,"NPL                2"
"MT103",4,4,3,3,3,5,4,1,1,3,1,3,3,3,3,3,1,4,3,3,1,3,4,4,4,3,3,3,0,0,1,0,0,0,0,0,0,"MT",103,"Dodson Diversion Dam",-108.3099,48.41194,"NPL                2"
"MT14",3,3,2,2,2,2,2,4,1,2,2,4,4,3,4,4,1,4,4,4,4,4,3,3,3,2,3,3,0,0,0,0,0,0,0,1,0,"MT",14,"Delmoe Lake",-112.3416,45.9843,"WMT                2"
"MT16",2,3,3,4,3,3,2,1,3,1,1,1,2,2,3,2,1,2,4,2,4,2,1,3,2,4,1,2,0,0,0,0,0,0,0,1,0,"MT",16,"Eureka Reservoir",-112.3178,47.8784,"NPL                1"
"MT20",3,3,2,3,3,5,3,1,2,1,4,1,3,3,3,3.7,1,3,2,3,1,3,3,3,3,3,3,3,0,0,1,0,0,0,0,0,0,"MT",20,"Frenchman Reservoir",-107.2243,48.9588,"NPL                2"
"MT21",4,1,5,2,1,2,1,1,3,1,1,4,4,3,3,4,3,3,4,3,2,5,3,3,3,3,3,3,0,0,0,1,0,0,0,0,0,"MT",21,"Fresno Reservoir",-109.946,48.59951,"NPL                1"
"MT22",2,1,1,3,1,1,3,1,1,1,1,2,3,2,3,3,1,5,4,2,1,2,3,2,2,3,3,3,0,0,0,0,0,0,0,1,0,"MT",22,"Gibson Reservoir",-112.7616,47.60138,"NPL                1"
"MT25",3,1,5,1,3,2,2,1,5,3,1,3,2,4,2,2,1,2,4,3,4,4,4,3,3,3,3,3,0,0,0,0,0,0,0,1,0,"MT",25,"Hauser",-111.8863,46.7649,"NPL                2"
"MT26",3,5,3,4,5,3,2,1,3,5,3,3,3,3,3,3,1,4,4,4,2,3,3,3,3,3,3,3,0,0,0,0,0,0,0,1,0,"MT",26,"Hebgen Reservoir",-111.3354,44.8623,"WMT                1"
"MT27",4,4,2,4,2,2,2,1,5,2,1,3,2,3,2,3,1,5,4,4,4,4,3,3,3,3,3,3,0,0,0,0,0,0,0,0,1,"MT",27,"Helena Valley Regulating Reservoir",-111.8828,46.64132,"WMT                2"
"MT31",4,3,4,2,3,2,2,1,5,3,1,4,3,3,3,3,1,4,3,3,4,4,4,4,4,3,3,3,0,0,0,0,0,0,0,1,0,"MT",31,"Holter",-112.0035,46.9913,"NPL                2"
"MT33",4,3,4,3,1,2,3,1,1,1,1,3,3,4,3,4,1,4,3,2,1,4,3,3,3,3,3,3,0,0,0,0,0,0,0,1,0,"MT",33,"Hungry Horse Reservoir",-114.0126,48.34133,"NPL                1"
"MT35",4,2,5,2,1,3,2,1,4,1,1,4,3,4,5,3,2,4,3,4,2,4,5,3,3,3,3,3,0,0,0,1,0,0,0,0,0,"MT",35,"Lake Frances",-112.2074,48.2629,"NPL                1"
"MT42",3,3,4,4,3,3,3,1,2,3,3,3,3,3,2,3,3,4,4,1,1,3,2,3,2,3,3,3,0,0,0,0,0,0,0,0,1,"MT",42,"Lake Koocanusa",-115.3083,48.41167,"WMT                2"
"MT47",4,3,4,3,1,1,3,1,4,2,4,4,4,4,5,5,2,4,4,4,4,4,4,4,4,3,3,3,0,0,0,0,0,0,0,1,0,"MT",47,"Martinsdale Reservoir",-110.2681,46.452,"NPL                2"
"MT60",4,4,3,3,2,5,3,1,3,1,1,5,3,3,3,3,1,3,2,3,1,4,3,3,3,3,3,3,0,0,0,1,0,0,0,0,0,"MT",60,"Nelson Reservoir",-107.5196,48.5238,"NPL                2"
"MT61",2,2,3,3,5,3,3,4,2,4.5,3,2,3,3,2.4,2,1,2,1,1,4,3,3,3,3,3,2,3,0,0,0,0,0,0,0,1,0,"MT",61,"Nevada Reservoir",-112.8107,46.8024,"WMT                2"
"MT62",3,4,1,5,4,3,2,3,3,1,1,3,3,3,4,4,3,3,2,2,4,4,3,3,3,1,3,3,0,0,0,0,0,0,0,1,0,"MT",62,"Newlan Creek Reservoir",-110.9376,46.6363,"NPL                1"
"MT64",3,3,3,3,1,2,2,1,3,1,1,3,3,4,4,3,2,4,4,3,4,3,4,4,4,3,2,3,0,0,0,0,0,0,0,1,0,"MT",64,"Nilan Reservoir",-112.5389,47.4869,"NPL                1"
"MT66",4,3,3,2,3,5,1,1,1,1,1,4,3,3,2,4,5,5,2,3,1,4,4,3,3,3,2,3,0,1,0,0,0,0,0,0,0,"MT",66,"Noxon Reservoir",-115.7306,47.9597,"WMT                1"
"MT68",4,4,3,3,1,4,3,1,3,1,1,3,2,5,5,3,1,4,2,4,4,2,4,5,5,3,1,1,0,0,0,0,0,0,0,1,0,"MT",68,"Pishkun Reservoir",-112.454,47.69225,"NPL                1"
"MT7",3,2,1,2,1,1,2,1,5,2,1,3,4,5,3,4,1,5,4,4,4,4,5,5,5,3,3,3,0,0,0,0,0,0,0,1,0,"MT",7,"Bynum Reservoir",-112.416,47.9648,"NPL                1"
"MT8",4,1,5,1,4,1,1,1,5,5,1,5,4,4,3,1,3,4,2,4,4,4,5,5,5,3,3,3,0,0,0,0,0,0,0,1,0,"MT",8,"Canyon Ferry",-111.7281,46.6486,"WMT                2"
"MT82",2,2,3,3,3,3,3,1,1,1,1,3,3,3,3,3,1,4,2,1,1,3,2,3,3,3,3,3,0,0,1,0,0,0,0,0,0,"MT",82,"Thompson Falls Reservoir",-115.35,47.5916,"WMT                1"
"MT83",3,2,3,3,1,3,3,1,1,1,1,3,4,3,5,3,3,3,3,2,1,3,3,2,2,3,3,3,0,0,0,1,0,0,0,0,0,"MT",83,"Tiber Reservoir",-111.0969,48.32194,"NPL                1"
"MT85",3,3,3,3,3,3,2,1,3,3,2,4,4,3,3,3,3,3,3,3,1,4,3,3,2,3,3,3,1,0,0,0,0,0,0,0,0,"MT",85,"Tongue River Reservoir",-106.7668,45.1309,"NPL                2"
"MT9",4,4,4,4,3,3,3,1,4,2,2,4,4,4,3,4,3,5,4,4,4,4,5,5,5,3,3,3,0,0,0,0,0,0,0,1,0,"MT",9,"Clark Canyon Reservoir",-112.8588,45.00024,"WMT                2"
"MT92",2,2,2,3,1,3,3,1,1,2,1,1,2,3,3,2,1,1,4,2,1,1,3,3,3,4,3,2,0,0,0,0,0,0,0,1,0,"MT",92,"Painted Rocks Reservoir",-114.2814,45.7174,"WMT                1"
"MT94",3,3,2,2,1,2,3,1,4,1,1,3,2,3,5,2,3,4,4,4,4,2,3,4,4,3,2,3,0,0,0,0,0,0,0,1,0,"MT",94,"Willow Creek Reservoir",-112.4293,47.54682,"NPL                1"
"MT98",2,2,2,1,1,2,2,1,3,2,2,2,2,4,3,3,1,3,4,4,4,2,4,4,4,3,3,3,0,0,0,0,0,0,0,1,0,"MT",98,"Harrison Lake or Willow Creek Reservoir",-111.6997,45.7138,"WMT                2"
"NC100",3,3,3,3,2,3,3,1,1,2,2,3,3,3,3,3,1,4,2,2,1,3,3,3,3,3,3,3,0,1,0,0,0,0,0,0,0,"NC",100,"Wiggins Mill Reservoir",-77.951825,35.692367,"CPL                3"
"NC101",3,3,3,3,2,3,3,1,1,3,2,3,3,3,3,3,3,3,2,2,1,3,3,4,3,3,3,3,0,1,0,0,0,0,0,0,0,"NC",101,"Buckhorn Reservoir",-78.124394,35.695086,"SAP                4"
"NC102",3,3,3,3,3,3,3,3,3,2,2,3,3,3,3,3,3,3,3,2,2,3,3,3,3,3,3,3,0,1,0,0,0,0,0,0,0,"NC",102,"Mayo Reservoir",-78.87125,36.527571,"SAP                4"
"NC103",3,3,3,3,2,3,3,3,3,2,2,3,3,3,3,3,3,2.4,3,2,3,3,3,3,2,3,3,3,0,1,0,0,0,0,0,0,0,"NC",103,"Lake Reidsville",-79.665828,36.284343,"SAP                4"
"NC11",4,4,4,4,1,4,3,1,2,3,1,4,4,4,3,3,4,3,2,2,1,4,4,4,4,2,3,3,0,1,0,0,0,0,0,0,0,"NC",11,"Lake Chatuge",-83.791,35.018,"SAP                1"
"NC12",1,1,1,1,1,1,1,1,5,1,1,2,2,3,2,3,1,1,3,2,4,1,3,3,1,3,1,1,0,0,0,0,0,0,0,1,0,"NC",12,"Lake Cheoah",-83.9366,35.4484,"SAP                1"
"NC13",3,2,3,2,3,3,3,1,1,3,1,2,2,3,3,3,1,3,2,2,2,3,3,3,3,3,3,3,0,1,0,0,0,0,0,0,0,"NC",13,"High Point City Lake",-79.945,35.995,"SAP                4"
"NC14",3,3,3,3,3,3,3,1,1,1,1,2,3,3,3,3,2,4,2,2,2,3,3,3,3,3,3,3,0,1,0,0,0,0,0,0,0,"NC",14,"Farmer Lake",-79.36139,36.38472,"SAP                4"
"NC15",1,1,1,3,3,3,3,3,4,5,4,3,3,2,3,2,3,1,2,1,1,2,2,2,2,3,3,3,0,1,0,0,0,0,0,0,0,"NC",15,"Lake Norman",-80.9587,35.435,"SAP                1"
"NC17",3,3,3,3,2,3,3,1,1,2,3,4,3,3,3,2,5,3,2,2,1,3,3,4,3,3,3,3,0,1,0,0,0,0,0,0,0,"NC",17,"Falls of the Neuse Reservoir",-78.58167,35.94167,"SAP                4"
"NC18",4,4,4,4,1,4,3,1,1,1,1,5,3,3,3,4,5,5,2,1,1,3,3,3,3,3,3,3,0,1,0,0,0,0,0,0,0,"NC",18,"Lake Fontana",-83.805,35.45333,"SAP                1"
"NC19",3,3,3,3,4,3,3,3,1,3,2,4,3,3,3,2,3,2,3,2,1,3,3,4,3,3,3,3,0,1,0,0,0,0,0,0,0,"NC",19,"Lake Gaston",-77.811,36.5019,"SAP                4"
"NC2",1,1,1,1,1,1,1,1,1,1,1,1,1,1,1,3,1,5,3,3,1,1,5,3,3,3,3,3,0,0,0,0,0,1,0,0,0,"NC",2,"Apalachia",-84.295,35.17,"SAP                1"
"NC26",4,4,4,4,4,2,2,3,3,3,4,4,4,3,3,4,5,4,2,3,1,4,4,4,4,3,3,3,0,1,0,0,0,0,0,0,0,"NC",26,"High Rock Lake",-80.2349,35.6007,"SAP                1"
"NC28",4,4,4,4,1,4,4,1,1,3,1,4,4,4,3,4,5,4,2,2,1,3,3,3,3,3,3,3,0,1,0,0,0,0,0,0,0,"NC",28,"Lake Hiwassee",-84.178,35.152,"SAP                1"
"NC3",4,4,4,3,3,3,3,1,3,4,4,4,4,4,2,3,3,3,2,2,2,3,3,3,3,3,4,3,0,1,0,0,0,0,0,0,0,"NC",3,"B. Everett Jordan",-79.07,35.65667,"SAP                4"
"NC31",3,3,3,3,2,3,3,1,1,3,2,3,3,3,3,3,1,3,2,2,1,3,3,3,3,3,3,3,0,1,0,0,0,0,0,0,0,"NC",31,"Lake Benson",-78.611,35.662,"SAP                4"
"NC32",3,3,3,3,2,3,3,1,1,3,1,5,3,4,3,3,4,5,3,3,2,3,4,4,4,3,3,3,0,1,0,0,0,0,0,0,0,"NC",32,"Lake Brandt",-79.8381,36.1711,"SAP                4"
"NC33",3,3,5,2,2,3,2,1,1,1,1,2,3,2,1,2,2,4,3,1,4,4,1,1,2,3,3,3,0,1,0,0,0,0,0,0,0,"NC",33,"Lake Holt",-78.772,36.167,"SAP                4"
"NC34",3,3,4,2,2,3,3,1,1,2,1,4,3,3,2,3,3,3,3,2,3,4,2,2,2,3,3,3,0,1,0,0,0,0,0,0,0,"NC",34,"Lake Cammack",-79.412,36.177,"SAP                4"
"NC35",3,3,3,3,2,3,3,1,1,2,2,2,3,3,3,2,1,3,2,2,1,3,3,3,3,3,3,3,0,1,0,0,0,0,0,0,0,"NC",35,"Lake Crabtree",-78.78222,35.83639,"SAP                4"
"NC37",3,3,4,2,4,3,3,1,1,4,3,4,3,2,3,3,4,2,2,2,3,4,2,2,2,3,3,3,0,1,0,0,0,0,0,0,0,"NC",37,"Hyco Reservoir",-79.047,36.513,"SAP                1"
"NC4",3,3,3,2,2,3,3,1,1,2,1,4,3,3,3,3,3,3,3,2,3,3,3,3,3,3,3,3,0,1,0,0,0,0,0,0,0,"NC",4,"Graham Mebane Reservoir",-79.32972,36.09972,"SAP                4"
"NC41",3,3,3,3,1,3,3,1,1,1,1,4,3,4,3,3,3,3,3,3,2,3,4,4,4,3,3,3,0,1,0,0,0,0,0,0,0,"NC",41,"Lake Mackintosh",-79.50417,36.04028,"SAP                4"
"NC42",3,3,3,3,1,5,3,1,1,1,1,1,3,3,3,3,1,5,3,2,2,3,3,3,3,3,3,3,0,1,0,0,0,0,0,0,0,"NC",42,"Lake Michie",-78.83,36.151,"SAP                1"
"NC44",3,3,3,3,3,3,3,3,3,3,3,2,3,3,3,3,1,5,2,3,1,4,4,4,4,3,3,3,0,1,0,0,0,0,0,0,0,"NC",44,"Thom-a-lex",-80.193,35.871,"SAP                1"
"NC46",3,3,3,3,2,3,3,1,2,1,1,4,3,3,3,3,1,3,3,2,1,3,3,4,4,3,3,3,0,1,0,0,0,0,0,0,0,"NC",46,"Lake Wheeler",-78.694,35.695,"SAP                4"
"NC5",4,4,4,3,1,3,3,1,5,1,1,3,3,3,3,3,1,5,2,2,2,3,3,3,1,3,1,1,0,0,0,0,0,0,0,1,0,"NC",5,"Bear Lake",-83.0724,35.2414,"SAP                1"
"NC52",3,3,3,3,1,3,3,1,3,3,1,3,3,3,3,3,2,3,2,2,1,3,3,3,3,3,3,3,0,1,0,0,0,0,0,0,0,"NC",52,"Lookout Shoals Reservoir",-81.0908,35.7575,"SAP                1"
"NC54",3,3,3,3,4,3,3,2,3,4,2,3,3,3,2,3,3,4,2,2,2,2,2,2,3,3,3,3,0,1,0,0,0,0,0,0,0,"NC",54,"Moss Lake",-81.457,35.276,"SAP                4"
"NC55",2,2,2,3,3,3,3,3,3,3,3,2,2,2,3,3,2,3,2,2,1,2,2,2,2,3,3,3,0,1,0,0,0,0,0,0,0,"NC",55,"Mountain Island Lake",-80.9852,35.3359,"SAP                1"
"NC56",1,1,1,1,1,3,3,1,1,1,1,1,1,1,1,1,1,1,1,1,1,1,1,1,1,1,1,1,0,1,0,0,0,0,0,0,0,"NC",56,"Lake Nantahala",-83.6538,35.1992,"SAP                1"
"NC59",3,3,3,3,3,3,3,1,4,3,1,3,3,3,3,3,2,2,3,2,3,3,3,3,3,3,3,3,0,1,0,0,0,0,0,0,0,"NC",59,"Oak Hollow Lake",-79.986,36.012,"SAP                4"
"NC60",4,4,4,3,4,3,3,4,3,5,3,5,3,3,3,3,5,3,2,3,1,4,3,3,3,3,3,3,0,1,0,0,0,0,0,0,0,"NC",60,"Lake Hickory",-81.1922,35.8214,"SAP                1"
"NC63",3,2,3,2,3,3,3,1,3,2,3,3,3,3,3,3,4,3,2,1,2,3,3,3,3,3,3,3,0,1,0,0,0,0,0,0,0,"NC",63,"Lake James",-81.848,35.734,"SAP                1"
"NC68",3,4,3,4,1,3,3,3,1,1,3,5,3,4,3,4,3,5,4,3,2,3,4,4,5,3,3,3,0,1,0,0,0,0,0,0,0,"NC",68,"Randleman Reservoir",-79.8113,35.836,"SAP                4"
"NC69",4,4,4,3,2,3,3,3,3,3,3,3,3,4,3,4,4,4,3,2,2,4,3,3,3,3,3,3,0,1,0,0,0,0,0,0,0,"NC",69,"Lake Rhodhiss",-81.4381,35.7742,"SAP                1"
"NC7",3,3,3,4,4,3,3,3,3,3,3,2,3,3,3,3,2,4,2,2,1,2,4,3,3,3,3,3,1,0,0,0,0,0,0,0,0,"NC",7,"Blewett Falls",-79.8798,34.988,"SAP                1"
"NC70",3,3,3,3,4,3,3,3,1,4,3,3,3,3,3,3,3,4,3,2,1,3,3,4,3,3,3,3,0,1,0,0,0,0,0,0,0,"NC",70,"Roanoke Rapids Lake",-77.6733,36.4817,"SAP                3"
"NC71",3,3,3,3,2,3,3,2,3,3,1,2,3,3,3,3,2,3,3,3,2,3,3,3,3,3,3,3,0,1,0,0,0,0,0,0,0,"NC",71,"Lake Reece",-79.97,35.681,"SAP                4"
"NC73",4,4,4,3,3,3,3,3,3,3,3,3,3,4,3,3,2,4,2,4,1,4,4,4,3,3,3,3,0,1,0,0,0,0,0,0,0,"NC",73,"Salem Lake",-80.192,36.096,"SAP                1"
"NC74",1,1,1,1,1,3,3,1,1,1,1,1,1,1,1,1,3,3,1,1,1,1,1,1,1,3,3,3,0,1,0,0,0,0,0,0,0,"NC",74,"Lake Santeetlah",-83.8767,35.3772,"SAP                1"
"NC76",4,4,4,4,3,3,3,1,2,3,2,5,4,4,3,3,5,5,3,3,1,3,4,4,3,3,3,3,0,1,0,0,0,0,0,0,0,"NC",76,"Shearon Harris Reservoir",-78.95611,35.63333,"SAP                4"
"NC78",3,3,3,3,3,3,3,1,1,3,2,4,3,3,4,3,4,3,2,2,1,3,3,4,3,3,3,3,0,1,0,0,0,0,0,0,0,"NC",78,"Tar River Reservoir",-77.885,35.899,"CPL                3"
"NC79",1,1,1,3,1,3,3,1,1,1,1,1,1,1,1,1,1,3,1,1,1,1,1,1,1,3,3,3,0,1,0,0,0,0,0,0,0,"NC",79,"Lake Glenville",-83.1525,35.1962,"SAP                1"
"NC82",3,3,3,3,3,3,3,3,3,3,3,3,3,3,3,3,4,3,2,3,1,4,3,3,3,3,3,3,0,1,0,0,0,0,0,0,0,"NC",82,"Lake Tillery",-80.0658,35.2067,"SAP                1"
"NC83",3,2,5,1,3,3,3,3,2,5,1,4,3,2,3,2,4,4,3,1,3,4,2,2,2,3,3,2,0,1,0,0,0,0,0,0,0,"NC",83,"Lake Townsend",-79.732,36.189,"SAP                4"
"NC86",3,4,4,3,3,3,3,3,3,3,3,3,4,3,3,3,3,4,3,3,1,4,2,3,3,3,3,3,1,0,0,0,0,0,0,0,0,"NC",86,"Tuckertown Lake",-80.1764,35.4851,"SAP                1"
"NC87",3,3,3,3,3,3,3,3,3,3,3,3,2,4,3,3,3,3,2,2,1,2,4,3,3,3,3,3,0,1,0,0,0,0,0,0,0,"NC",87,"W. Kerr Scott Reservoir",-81.23333,36.15,"SAP                1"
"NC9",2,2,2,2,2,3,3,1,1,2,3,2,3,3,3,3,1,5,2,2,1,2,2,2,3,3,3,3,1,0,0,0,0,0,0,0,0,"NC",9,"Cane Creek Lake",-80.688415,34.836702,"SAP                1"
"NC95",3,3,3,3,2,3,3,3,3,3,4,4,3,3,3,3,4,3,1,3,1,4,4,4,4,2,3,3,0,1,0,0,0,0,0,0,0,"NC",95,"Badin Lake",-80.0931,35.4197,"SAP                1"
"NC97",3,3,3,3,3,3,3,1,1,3,3,1,3,4,3,4,2,4,4,4,1,4,4,4,3,3,3,3,0,1,0,0,0,0,0,0,0,"NC",97,"Lake Twitty",-80.479367,35.035443,"SAP                1"
"NC98",2,2,2,3,3,3,3,3,1,3,3,3,3,3,3,3,3,3,2,2,1,2,2,2,2,3,3,3,0,1,0,0,0,0,0,0,0,"NC",98,"Belews Lake",-80.026188,36.316785,"SAP                1"
"NC99",4,4,4,4,4,4,4,5,5,1,1,4,4,4,4,4,1,4,2,3,4,4,4,4,4,3,3,3,0,0,1,0,0,0,0,0,0,"NC",99,"Lake Adger",-82.203062,35.338304,"SAP                1"
"ND19",3,3,3,3,3,4,2,4,4,3,1,3,4,4,5,4,4,5,4,4,2,3,4,4,3,2,2,2,0,0,0,1,0,0,0,0,0,"ND",19,"Lake Sakakawea",-101.4317,47.50167,"NPL                1"
"ND24",3,3,3,3,1,3,3,5,3,2,4,4,3,3,4,3,1,3,3,1,1,2,3,3,3,3,3,3,0,0,0,1,0,0,0,0,0,"ND",24,"Harvey Dam",-99.92217,47.76226,"TPL                1"
"ND45",3,3,3,3,1,2,3,3,1,1,2,4,3,3,2,4,1,3,2,3,4,4,4,3,3,3,3,4,0,0,1,0,0,0,0,0,0,"ND",45,"Mt. Carmel Dam",-98.28019,48.90768,"TPL                1"
"ND46",4,4,4,4,2,3,3,2,2,2,2,4,4,3,2,4,3,3,3,3,1,4,4,4,4,2,4,4,0,1,0,0,0,0,0,0,0,"ND",46,"Nelson Lake",-101.2064,47.06629,"NPL                2"
"ND49",2,2,2,2,2,4,2,3,1,2,2,1,1,3,4,1,1,1,2,2,3,2,3,3,3,3,3,3,0,0,1,0,0,0,0,0,0,"ND",49,"Painted Woods Lake",-100.9634,47.20931,"NPL                2"
"ND5",2,1,2,3,5,3,2,5,3,1,1,1,1,2,2,3,1,4,3,2,4,2,3,2,2,4,2,2,0,0,0,1,0,0,0,0,0,"ND",5,"Bowman-Haley Dam",-103.2467,45.98167,"NPL                2"
"ND55",4,3,4,3,2,3,3,3,3,2,2,4,4,3,3,3,3,3,3,3,3,4,4,3,3,3,3,3,0,0,0,1,0,0,0,0,0,"ND",55,"Lake Audubon",-101.2673,41.607,"SPL                1"
"ND58",3,3,3,3,4,5,3,1,5,5,3,5,4,3,4,3,1,5,2,1,1,3,3,4,4,2,3,3,0,0,0,1,0,0,0,0,0,"ND",58,"Sweet Briar Dam",-101.2579,46.86369,"NPL                2"
"ND59",4,5,4,3,1,3,3,3,3,2,1,5,4,4,3,3,1,5,3,3,2,4,4,5,4,3,4,4,0,0,0,1,0,0,0,0,0,"ND",59,"Lake Darling, Upper Souris NWR",-101.6,48.48333,"TPL                3"
"ND61",3,3,3,3,3,4,3,5,2,2,2,4,3,2,3,4,2,3,3,2,3,3,2,3,3,3,3,3,0,0,0,1,0,0,0,0,0,"ND",61,"Heart Butte Reservoir",-101.860099,46.609887,"NPL                2"
"ND62",3,1,3,2,1,1,1,5,3,1,4,3,3,4,4,2,1,4,2,3,4,3,4,3,3,3,3,3,0,0,0,1,0,0,0,0,0,"ND",62,"Patterson Lake",-102.852044,46.860778,"NPL                2"
"ND63",3,3,3,3,2,3,3,3,2,2,2,3,3,3,3,3,3,3,3,2,3,3,2,3,3,3,2,2,0,0,0,1,0,0,0,0,0,"ND",63,"Garrison Diversion Unit Canal Lakes",-100.808258,47.537601,"NPL                2"
"ND8",2,2,2,2,2,2,2,3,2,2,4,2,2,2,2,2,1,2,3,2,3,2,2,3,3,3,3,3,0,0,1,0,0,0,0,0,0,"ND",8,"Coal Mine Lake",-100.1366,47.6791,"TPL                1"
