FID,STATE,RESINFO,RESNAME1,RESID,LONGITUDE,LATITUDE,CLUSID,NEAR_FID,NEAR_DIST,NEAR_X,NEAR_Y,X_COR,Y_COR,,,
0,AL,12,Guntersville Reservoir,AL12,-86.39333,34.42167,SAP                1,26362,0.000755816,-86.39266172,34.42202308,-86.39266172,34.42202308,,Points outside snap distance:,373
1,AL,13,Neely Henry,AL13,-86.0533,33.7833,SAP                1,27124,0.000140868,-86.05319136,33.78338968,-86.05319136,33.78338968,,,
2,AL,14,Holt Reservoir,AL14,-87.45,33.25333,SAP                1,27520,0.000756498,-87.44991236,33.2540814,-87.44991236,33.2540814,,,
3,AL,15,Gainesville Reservoir,AL15,-88.16667,32.83333,CPL                3,26777,0.004276647,-88.16786555,32.83743614,-88.16786555,32.83743614,,,
4,AL,16,Bankhead Lake,AL16,-87.355,33.45667,SAP                1,26872,0.001964071,-87.35667772,33.45769119,-87.35667772,33.45769119,,,
5,AL,17,Lake Jordan,AL17,-86.2583,32.6187,SAP                1,26996,0.001315845,-86.25735652,32.61961722,-86.25735652,32.61961722,,,
6,AL,18,Lake Tholocco,AL18,-85.72167,31.385,CPL                4,27156,0.001455854,-85.7202415,31.38471909,-85.7202415,31.38471909,,,
7,AL,19,Lay,AL19,-86.5171,32.9637,SAP                4,27271,0.00020141,-86.51729872,32.9636672,-86.51729872,32.9636672,,,
8,AL,2,Warrior Reservoir,AL2,-87.84167,32.77833,CPL                3,27132,0.001085132,-87.842111,32.77932148,-87.842111,32.77932148,,,
9,AL,20,Smith Lake,AL20,-87.1083,33.9417,SAP                1,26751,0.00253415,-87.10577558,33.94192181,-87.10577558,33.94192181,,,
10,AL,21,Little Bear Creek Reservoir,AL21,-87.982,34.455,CPL                1,27254,0.001026753,-87.9822334,34.45599987,-87.9822334,34.45599987,,,
11,AL,22,Logan Martin,AL22,-86.3383,33.4267,SAP                1,27183,0.001886973,-86.33666526,33.42575751,-86.33666526,33.42575751,,,
12,AL,23,Lake Martin,AL23,-85.9117,32.68,SAP                1,26464,0.000467411,-85.91123634,32.67994089,-85.91123634,32.67994089,,,
13,AL,24,Millers Ferry,AL24,-87.4,32.10167,CPL                4,26837,0.000183579,-87.39982106,32.10171099,-87.39982106,32.10171099,,,
14,AL,25,Lake Mitchell,AL25,-86.4467,32.805,SAP                1,27239,0.001890925,-86.44515529,32.80609062,-86.44515529,32.80609062,,,
15,AL,27,Point A Reservoir,AL27,-86.5184,31.361,CPL                4,27190,0.000530223,-86.51871148,31.36142909,-86.51871148,31.36142909,,,
16,AL,29,Harris,AL29,-85.613,33.2585,SAP                1,26477,0.003171189,-85.61589588,33.25720759,-85.61589588,33.25720759,,,
17,AL,3,Bear Creek Reservoir,AL3,-87.98833,34.39667,CPL                1,27464,0.001989711,-87.98862772,34.39863731,-87.98862772,34.39863731,,,
18,AL,32,Jones Bluff,AL32,-86.78333,32.32333,CPL                4,27191,0.001103997,-86.78436284,32.32371995,-86.78436284,32.32371995,,,
19,AL,33,Thurlow,AL33,-85.8883,32.535,CPL                1,26464,0.000870281,-85.88756263,32.53453775,-85.88756263,32.53453775,,,
20,AL,34,Aliceville lake,AL34,-85.36489,31.14739,CPL                3,-1,-1,-1,-1,-85.36489,31.14739,,,
21,AL,35,Upper Bear Creek Reservoir,AL35,-87.695,34.27167,SAP                1,27464,0.000264186,-87.69517572,34.27186728,-87.69517572,34.27186728,,,
22,AL,37,Lake Eufaula,AL37,-85.06333,31.62667,CPL                4,40373,0.002556396,-85.06565587,31.62560911,-85.06565587,31.62560911,,,
23,AL,39,Weiss,AL39,-85.7539,34.1721,SAP                3,27332,2.33503E-05,-85.75388278,34.17211577,-85.75388278,34.17211577,,,
24,AL,4,Cedar Creek Reservoir,AL4,-87.975,34.545,CPL                1,26929,0.000243738,-87.97486854,34.54520524,-87.97486854,34.54520524,,,
25,AL,44,wheeler reservoir,AL44,-87.38167,34.79833,SAP                1,-1,-1,-1,-1,-87.38167,34.79833,,,
26,AL,45,Oliver pool,AL45,-87.59278,33.20636,CPL                3,27520,0.002110275,-87.59339147,33.20837974,-87.59339147,33.20837974,,,
27,AL,46,Wilson Reservoir,AL46,-87.625,34.795,SAP                1,26473,0.000894307,-87.62514973,34.79588168,-87.62514973,34.79588168,,,
28,AL,47,Yates,AL47,-85.8893,32.5744,SAP                1,26464,0.000533648,-85.88982936,32.57446752,-85.88982936,32.57446752,,,
29,AL,48,Big Creek Lake,AL48,-88.340778,30.717341,CPL                3,27349,0.002065486,-88.33930968,30.71879368,-88.33930968,30.71879368,,,
30,AL,6,Claiborne Lake,AL6,-87.55,31.615,CPL                4,26869,0.00206602,-87.55203733,31.61465691,-87.55203733,31.61465691,,,
31,AL,7,Coffeeville,AL7,-88.12833,31.75667,CPL                4,26777,0.001627816,-88.12891503,31.75818905,-88.12891503,31.75818905,,,
32,AL,8,Demopolis Reservoir,AL8,-87.88,32.52,CPL                3,26777,0.000728846,-87.87982905,32.52070851,-87.87982905,32.52070851,,,
33,AL,9,Gantt Reservoir,AL9,-86.4796,31.4032,CPL                4,27005,1.91247E-05,-86.47961783,31.40320691,-86.47961783,31.40320691,,,
34,AR,10,Blue Mountain Lake,AR10,-93.64333,35.10167,SAP                1,29640,0.000991506,-93.64326234,35.10068081,-93.64326234,35.10068081,,,
35,AR,11,Brewer Lake,AR11,-92.60528,35.235,SAP                1,-1,-1,-1,-1,-92.60528,35.235,,,
36,AR,12,Bull Shoals,AR12,-92.57333,36.36333,SAP                1,30009,0.003477644,-92.57510213,36.36632225,-92.57510213,36.36632225,,,
37,AR,13,Cane Creek Lake,AR13,-91.76889,33.93333,CPL                3,-1,-1,-1,-1,-91.76889,33.93333,,,
38,AR,14,Lake Hamilton,AR14,-93.0265,34.4428,SAP                1,29507,0.000154195,-93.026501,34.44264581,-93.026501,34.44264581,,,
39,AR,15,Pool 5 - Arkansas River,AR15,-92.10333,34.41167,CPL                4,28630,0.000630229,-92.10298347,34.41219641,-92.10298347,34.41219641,,,
40,AR,16,Cox Creek Lake,AR16,-92.62167,34.17694,CPL                3,-1,-1,-1,-1,-92.62167,34.17694,,,
41,AR,18,Dardanelle Lake,AR18,-93.16667,35.25,SAP                3,28507,0.003663722,-93.1690363,35.24720295,-93.1690363,35.24720295,,,
42,AR,19,Pool 6/Little Rock Pool Arkansas River,AR19,-92.155,34.66667,CPL                4,28630,0.002200478,-92.15719415,34.66683678,-92.15719415,34.66683678,,,
43,AR,2,Pool 9 Rockefeller Lake,AR2,-92.78667,35.125,SAP                3,28507,0.000497469,-92.78690242,35.12543984,-92.78690242,35.12543984,,,
44,AR,20,DeGray Lake,AR20,-93.11,34.22,SAP                1,27897,0.000647353,-93.11061066,34.21978514,-93.11061066,34.21978514,,,
45,AR,21,DeGray Reregulation Lake,AR21,-93.10333,34.23861,SAP                3,-1,-1,-1,-1,-93.10333,34.23861,,,
46,AR,23,DeQueen,AR23,-94.38167,34.09833,SAP                1,29820,0.000940032,-94.38073408,34.09841778,-94.38073408,34.09841778,,,
47,AR,28,Dierks,AR28,-94.1,34.145,SAP                1,29821,0.001664836,-94.09833566,34.1449593,-94.09833566,34.1449593,,,
48,AR,29,Arkansas River Pool 4,AR29,-91.90333,34.24833,CPL                4,28630,0.000175536,-91.90348815,34.24825384,-91.90348815,34.24825384,,,
49,AR,3,Lake Balboa,AR3,-92.89722,34.62639,SAP                1,-1,-1,-1,-1,-92.89722,34.62639,,,
50,AR,30,Felsenthal,AR30,-92.11833,33.05333,CPL                3,-1,-1,-1,-1,-92.11833,33.05333,,,
51,AR,31,Lake Charles,AR31,-91.13805,36.06361,SAP                4,29215,0.000225541,-91.13787051,36.06374657,-91.13787051,36.06374657,,,
52,AR,32,Gillham,AR32,-94.23,34.21,SAP                1,28605,0.001329024,-94.22877988,34.21052689,-94.22877988,34.21052689,,,
53,AR,34,Greers Ferry Lake,AR34,-92,35.525,SAP                1,-1,-1,-1,-1,-92,35.525,,,
54,AR,38,Harris Brake Lake,AR38,-92.775,34.98667,SAP                1,-1,-1,-1,-1,-92.775,34.98667,,,
55,AR,4,bear creek lake,AR4,-90.695,34.70833,CPL                1,-1,-1,-1,-1,-90.695,34.70833,,,
56,AR,40,Huckleberry Lake,AR40,-93.19028,35.37222,SAP                1,29310,0.004370331,-93.18789949,35.3685549,-93.18789949,35.3685549,,,
57,AR,41,Hurricane Lake,AR41,-92.52972,34.61666,SAP                1,28028,0.000330743,-92.52946043,34.61686497,-92.52946043,34.61686497,,,
58,AR,42,"Arkansas River, Pool 13",AR42,-94.29167,35.35,SAP                1,29349,0.003327209,-94.29367505,35.3473448,-94.29367505,35.3473448,,,
59,AR,43,Arkansas River Pool 3,AR43,-91.67833,34.165,CPL                4,28429,0.002856142,-91.67937038,34.16234009,-91.67937038,34.16234009,,,
60,AR,44,Lake Atkins,AR44,-92.94,35.21583,SAP                1,-1,-1,-1,-1,-92.94,35.21583,,,
61,AR,45,Calion Lake,AR45,-92.52834,33.325,CPL                3,29677,0.003720537,-92.52472245,33.32413066,-92.52472245,33.32413066,,,
62,AR,46,Lake Columbia,AR46,-93.40639,33.28806,CPL                3,-1,-1,-1,-1,-93.40639,33.28806,,,
63,AR,47,Lake Coronado,AR47,-92.95389,34.655,SAP                1,-1,-1,-1,-1,-92.95389,34.655,,,
64,AR,48,lake des arc,AR48,-91.50833,35.02167,CPL                1,-1,-1,-1,-1,-91.50833,35.02167,,,
65,AR,49,Lake Erling,AR49,-93.52528,33.05,CPL                1,29228,0.003171111,-93.52251548,33.04844649,-93.52251548,33.04844649,,,
66,AR,5,Beaver Lake,AR5,-93.84833,36.41667,SAP                1,-1,-1,-1,-1,-93.84833,36.41667,,,
67,AR,50,Lake Fort Smith,AR50,-94.14861,35.56111,SAP                1,-1,-1,-1,-1,-94.14861,35.56111,,,
68,AR,51,Lake G-P,AR51,-92.04361,33.21972,CPL                3,-1,-1,-1,-1,-92.04361,33.21972,,,
69,AR,52,Lake Maumelle,AR52,-92.48695,34.85361,SAP                1,-1,-1,-1,-1,-92.48695,34.85361,,,
70,AR,53,Lake Monticello,AR53,-91.85361,33.70028,CPL                1,-1,-1,-1,-1,-91.85361,33.70028,,,
71,AR,54,Lake Norrell,AR54,-92.645,34.71833,SAP                1,-1,-1,-1,-1,-92.645,34.71833,,,
72,AR,55,Lake Overcup,AR55,-92.73333,35.19833,SAP                1,29711,0.004225296,-92.7375371,35.19793827,-92.7375371,35.19793827,,,
73,AR,56,Lake Poinsett,AR56,-90.67555,35.52333,CPL                1,-1,-1,-1,-1,-90.67555,35.52333,,,
74,AR,57,Lake Sequoyah,AR57,-94.06861,36.06667,SAP                3,29834,0.000330945,-94.06840495,36.06692977,-94.06840495,36.06692977,,,
75,AR,6,Beaver Fork Lake,AR6,-92.44527,35.14333,SAP                1,28499,0.000719116,-92.44589367,35.14297201,-92.44589367,35.14297201,,,
76,AR,60,Lake Winona,AR60,-92.85,34.79667,SAP                1,28727,0.001973878,-92.84870697,34.7981614,-92.84870697,34.7981614,,,
77,AR,61,Lee Creek Reservoir,AR61,-94.4148,35.4866,SAP                1,28696,5.83657E-05,-94.4147627,35.48664489,-94.4147627,35.48664489,,,
78,AR,62,SWEPCO Lake,AR62,-94.54417,36.23917,SAP                1,-1,-1,-1,-1,-94.54417,36.23917,,,
79,AR,64,Lower White Oak Lake,AR64,-93.09666,33.70167,CPL                3,-1,-1,-1,-1,-93.09666,33.70167,,,
80,AR,65,Ludwig Lake,AR65,-93.45583,35.53333,SAP                1,-1,-1,-1,-1,-93.45583,35.53333,,,
81,AR,68,Millwood Lake,AR68,-93.96167,33.695,CPL                1,28321,0.003445099,-93.96506605,33.69442072,-93.96506605,33.69442072,,,
82,AR,71,Pool 7 Arkansas River,AR71,-92.35833,34.79167,SAP                3,28729,0.00103921,-92.35789323,34.79261297,-92.35789323,34.79261297,,,
83,AR,72,Greeson,AR72,-93.715,34.14833,SAP                1,27794,0.000286895,-93.71523831,34.14817026,-93.71523831,34.14817026,,,
84,AR,73,Nimrod,AR73,-93,34.95167,SAP                1,-1,-1,-1,-1,-93,34.95167,,,
85,AR,74,Norfork,AR74,-92.24,36.25,SAP                1,29770,0.002209104,-92.23847597,36.24840078,-92.23847597,36.24840078,,,
86,AR,75,"Ozark Pool, Arkansas River, Pool 12",AR75,-93.81,35.47333,SAP                1,27765,0.004320553,-93.8132376,35.47046904,-93.8132376,35.47046904,,,
87,AR,76,Ozark City Lake,AR76,-93.845,35.53,SAP                1,29902,0.002681134,-93.84464398,35.52734261,-93.84464398,35.52734261,,,
88,AR,77,Lake Hinkle,AR77,-94.25222,34.85278,SAP                1,28071,0.000181562,-94.25213618,34.85294105,-94.25213618,34.85294105,,,
89,AR,78,Lake Catherine,AR78,-92.8939,34.4272,SAP                1,30137,0.000315597,-92.89391388,34.42688471,-92.89391388,34.42688471,,,
90,AR,8,Lake Frierson,AR8,-90.72334,35.97055,CPL                1,28266,0.000139685,-90.72320045,35.97055614,-90.72320045,35.97055614,,,
91,AR,80,storm creek lake,AR80,-90.61333,34.59667,CPL                1,-1,-1,-1,-1,-90.61333,34.59667,,,
92,AR,81,Sugar Loaf Lake,AR81,-94.395,35.09444,SAP                1,-1,-1,-1,-1,-94.395,35.09444,,,
93,AR,82,AR River Pool 8,AR82,-92.5383,35.07667,SAP                3,28507,0.002847151,-92.54114426,35.07679818,-92.54114426,35.07679818,,,
94,AR,83,Tri-County Lake,AR83,-92.36166,33.78333,CPL                3,-1,-1,-1,-1,-92.36166,33.78333,,,
95,AR,84,Irons fork Lake,AR84,-94.13028,34.64056,SAP                1,28561,0.000194109,-94.13046943,34.64060237,-94.13046943,34.64060237,,,
96,AR,85,Booneville City Lake,AR85,-94.05833,35.13945,SAP                1,29512,0.00018168,-94.0581574,35.13950671,-94.0581574,35.13950671,,,
97,AR,86,Upper White Oak Lake,AR86,-93.08667,33.66667,CPL                3,30040,0.000179841,-93.08674289,33.66683441,-93.08674289,33.66683441,,,
98,AR,87,Dumas Pool,AR87,-91.31333,33.98833,CPL                4,28429,0.000512402,-91.312882,33.98857871,-91.312882,33.98857871,,,
99,AR,89,Lake Saracen,AR89,-92.00739,34.236783,CPL                3,-1,-1,-1,-1,-92.00739,34.236783,,,
100,AR,9,Lake Ouachita,AR9,-93.18833,34.57333,SAP                1,-1,-1,-1,-1,-93.18833,34.57333,,,
101,AR,90,Bois d' Arc,AR90,-93.703558,33.55613,CPL                1,-1,-1,-1,-1,-93.703558,33.55613,,,
102,AR,91,Lake Barnett,AR91,-91.94639,35.2275,SAP                1,29344,0.000212191,-91.9464483,35.22770403,-91.9464483,35.22770403,,,
103,AR,92,Lake Conway,AR92,-92.395563,34.996816,SAP                4,30148,0.000217653,-92.39577844,34.99684695,-92.39577844,34.99684695,,,
104,AZ,20,Patagonia Lake,AZ20,-110.86944,31.49111,XER                3,30822,0.002005288,-110.8683018,31.48945906,-110.8683018,31.48945906,,,
105,AZ,24,Lyman Lake,AZ24,-109.34111,33.07167,WMT                2,-1,-1,-1,-1,-109.34111,33.07167,,,
106,AZ,25,Lake Havasu,AZ25,-114.1333,34.27167,XER                2,32153,0.002282244,-114.135453,34.27091294,-114.135453,34.27091294,,,
107,AZ,5,Big Lake,AZ5,-109.41722,33.88667,WMT                1,32051,0.000750504,-109.417774,33.88717632,-109.417774,33.88717632,,,
108,CA,100,Folsom Lake,CA100,-121.1567,38.70755,XER                3,34786,0.000300702,-121.1568904,38.70778276,-121.1568904,38.70778276,,,
109,CA,11,Big Bear Lake,CA11,-116.977,34.242,WMT                2,35514,0.000147802,-116.9770798,34.24212438,-116.9770798,34.24212438,,,
110,CA,129,Lake Hodges,CA129,-117.128,33.045,XER                3,33864,0.000430258,-117.1281961,33.04538295,-117.1281961,33.04538295,,,
111,CA,141,Iron Gate Reservoir,CA141,-122.4349,41.9342,WMT                2,34177,0.000770374,-122.4354351,41.93475423,-122.4354351,41.93475423,,,
112,CA,149,Keswick Reservoir,CA149,-122.4454,40.61201,XER                3,33121,0.000599479,-122.4459575,40.61223031,-122.4459575,40.61223031,,,
113,CA,152,Lake Arrowhead,CA152,-117.167,34.262,WMT                2,-1,-1,-1,-1,-117.167,34.262,,,
114,CA,157,Lake Hemet,CA157,-116.705,33.665,WMT                2,33648,0.001285526,-116.7047692,33.66373536,-116.7047692,33.66373536,,,
115,CA,158,Loveland Reservoir,CA158,-116.792,32.782,XER                3,33657,0.001138605,-116.7928469,32.78123892,-116.7928469,32.78123892,,,
116,CA,165,Lake Leavitt,CA165,-120.507,40.377,XER                2,-1,-1,-1,-1,-120.507,40.377,,,
117,CA,166,Lewiston Lake,CA166,-122.793,40.72637,WMT                2,33525,0.000840505,-122.7926404,40.7271297,-122.7926404,40.7271297,,,
118,CA,183,Lake Mathews,CA183,-117.46,33.833,XER                3,-1,-1,-1,-1,-117.46,33.833,,,
119,CA,185,McCloud Reservoir,CA185,-122.0713,41.1309,WMT                2,33439,0.000118561,-122.0713912,41.13082423,-122.0713912,41.13082423,,,
120,CA,186,Mc Coy Flat Reservoir,CA186,-120.942,40.453,WMT                2,32557,0.00186375,-120.9434765,40.45413737,-120.9434765,40.45413737,,,
121,CA,196,Lake Berryessa,CA196,-122.1043,38.51337,XER                3,33598,0.000109736,-122.1043105,38.51347923,-122.1043105,38.51347923,,,
122,CA,197,Lake Morena,CA197,-116.55,32.685,XER                3,34717,0.000990968,-116.5494655,32.68416554,-116.5494655,32.68416554,,,
123,CA,2,Anderson Lake,CA2,-121.6308,37.1676,XER                3,34610,4.33519E-05,-121.630792,37.16755739,-121.630792,37.16755739,,,
124,CA,214,Perris Reservoir,CA214,-117.183,33.858,XER                2,-1,-1,-1,-1,-117.183,33.858,,,
125,CA,217,Lake Britton,CA217,-121.6767,41.0218,WMT                2,32716,0.000907357,-121.6758318,41.02206382,-121.6758318,41.02206382,,,
126,CA,218,Pitt 6 Reservoir,CA218,-121.9931,40.9224,WMT                2,32757,0.000238438,-121.9928739,40.92247571,-121.9928739,40.92247571,,,
127,CA,219,Pit River,CA219,-122.017,40.8418,WMT                2,32757,0.000208451,-122.0168053,40.84187441,-122.0168053,40.84187441,,,
128,CA,226,Ruth Lake,CA226,-123.4332,40.3685,WMT                2,32861,0.000645057,-123.4325793,40.36832453,-123.4325793,40.36832453,,,
129,CA,23,Big Sage reservoir,CA23,-120.625,41.578,WMT                2,33434,0.000957159,-120.6254309,41.57714533,-120.6254309,41.57714533,,,
130,CA,233,Lake Skinner,CA233,-117.072,33.587,XER                3,32490,0.000436159,-117.0718748,33.58658221,-117.0718748,33.58658221,,,
131,CA,244,San Pablo Reservoir,CA244,-122.26,37.943,XER                3,-1,-1,-1,-1,-122.26,37.943,,,
132,CA,245,San Vicente Reservoir,CA245,-116.925,32.912,XER                3,33097,0.000115061,-116.9249125,32.91207475,-116.9249125,32.91207475,,,
133,CA,248,Lower Otay Reservoir,CA248,-116.927,32.61,XER                3,34746,0.001498973,-116.926153,32.61123671,-116.926153,32.61123671,,,
134,CA,25,Boca Reservoir,CA25,-120.0955,39.39009,WMT                2,34973,0.001293937,-120.0942163,39.38992789,-120.0942163,39.38992789,,,
135,CA,259,Silva Flat,CA259,-120.922,40.968,XER                3,-1,-1,-1,-1,-120.922,40.968,,,
136,CA,272,Sweetwater Reservoir,CA272,-117.007,32.692,XER                3,33494,0.0001559,-117.0070193,32.69184529,-117.0070193,32.69184529,,,
137,CA,28,Bowman Lake,CA28,-120.6527,39.4485,WMT                2,34089,0.000167804,-120.6526044,39.44836211,-120.6526044,39.44836211,,,
138,CA,282,Trinity Reservoir,CA282,-122.7622,40.80111,WMT                2,33859,0.000715674,-122.7629153,40.80108537,-122.7629153,40.80108537,,,
139,CA,29,Lake Siskiyou,CA29,-122.3285,41.2822,WMT                1,33235,0.002924779,-122.3303601,41.27994289,-122.3303601,41.27994289,,,
140,CA,291,Uvas Reservoir,CA291,-121.69,37.067,XER                3,32454,0.000260047,-121.6901498,37.06678744,-121.6901498,37.06678744,,,
141,CA,299,Whiskeytown Lake,CA299,-122.5395,40.59923,XER                2,35010,5.98618E-05,-122.5394467,40.59925725,-122.5394467,40.59925725,,,
142,CA,3,Antelope Lake,CA3,-120.483,40.835,XER                2,-1,-1,-1,-1,-120.483,40.835,,,
143,CA,30,Cachuma,CA30,-119.9815,34.58721,XER                2,33356,0.002599017,-119.9834834,34.58553043,-119.9834834,34.58553043,,,
144,CA,33,Briones Reservoir,CA33,-122.208,37.913,XER                2,-1,-1,-1,-1,-122.208,37.913,,,
145,CA,36,Bucks Lake,CA36,-121.2038,39.8953,WMT                1,34666,0.00023004,-121.2039731,39.89514853,-121.2039731,39.89514853,,,
146,CA,40,Butt Valley Reservoir,CA40,-121.1461,40.1154,WMT                2,34621,0.002185049,-121.1443702,40.11406503,-121.1443702,40.11406503,,,
147,CA,43,Lake Calero,CA43,-121.792,37.183,XER                3,35063,0.002374355,-121.791894,37.18537199,-121.791894,37.18537199,,,
148,CA,44,Camp Far West,CA44,-121.3165,39.0501,XER                3,34970,0.000380658,-121.3163991,39.04973296,-121.3163991,39.04973296,,,
149,CA,46,Caples Lake,CA46,-120.0493,38.7066,WMT                2,-1,-1,-1,-1,-120.0493,38.7066,,,
150,CA,47,Casitas,CA47,-119.3353,34.37144,XER                2,-1,-1,-1,-1,-119.3353,34.37144,,,
151,CA,49,Castaic Lake,CA49,-118.6148,34.5263,WMT                2,34071,0.002359169,-118.6129114,34.52488625,-118.6129114,34.52488625,,,
152,CA,51,Silverwood Reservoir,CA51,-117.3142,34.3046,WMT                2,-1,-1,-1,-1,-117.3142,34.3046,,,
153,CA,52,"Lake Chabot, (Alameda Co.)",CA52,-122.122,37.73,XER                3,33308,0.000221659,-122.1221139,37.73019014,-122.1221139,37.73019014,,,
154,CA,56,Clear Lake,CA56,-122.5663,38.9227,XER                3,35469,0.000351233,-122.5665448,38.92295183,-122.5665448,38.92295183,,,
155,CA,64,Copco,CA64,-122.3334,41.9794,WMT                2,34486,0.00014969,-122.3334263,41.97954737,-122.3334263,41.97954737,,,
156,CA,67,Coyote Lake,CA67,-121.548,37.118,XER                3,35434,0.000451277,-121.548407,37.11819498,-121.548407,37.11819498,,,
157,CA,68,Coyote Flat reservoir,CA68,-120.985,40.908,WMT                2,35121,0.001421623,-120.9852668,40.90939636,-120.9852668,40.90939636,,,
158,CA,72,lake cuyamaca,CA72,-116.587,32.99,XER                2,34719,0.000208506,-116.5870305,32.98979374,-116.5870305,32.98979374,,,
159,CA,74,"Lake Del Valle, (Alameda Co.)",CA74,-121.745,37.615,XER                3,35331,0.001670461,-121.7458653,37.61357109,-121.7458653,37.61357109,,,
160,CA,75,Diamond Valley Lake,CA75,-117.066,33.67,XER                3,-1,-1,-1,-1,-117.066,33.67,,,
161,CA,8,Lake Barrett,CA8,-116.67,32.678,XER                3,34036,0.001068961,-116.6708798,32.67860722,-116.6708798,32.67860722,,,
162,CA,82,Dorris,CA82,-120.5,41.53333,WMT                2,-1,-1,-1,-1,-120.5,41.53333,,,
163,CA,9,Bayley Reservoir,CA9,-120.627,41.262,WMT                2,-1,-1,-1,-1,-120.627,41.262,,,
164,CA,92,El Capitan Reservoir,CA92,-116.81,32.883,XER                3,32499,0.002626345,-116.8098008,32.88561878,-116.8098008,32.88561878,,,
165,CO,117,Mt Elbert Forebay,CO117,-106.3562,39.11186,WMT                1,-1,-1,-1,-1,-106.3562,39.11186,,,
166,CO,148,Wolford Mountain Reservoir,CO148,-106.4153,40.11306,WMT                2,37307,0.000113996,-106.4154106,40.11308752,-106.4154106,40.11308752,,,
167,CO,166,Turquoise Reservoir,CO166,-106.3703,39.25167,WMT                1,36552,0.000665134,-106.3705117,39.25230055,-106.3705117,39.25230055,,,
168,CO,17,Boyd Lake,CO17,-105.0244,40.42056,SPL                3,-1,-1,-1,-1,-105.0244,40.42056,,,
169,CO,189,Twin Lakes Reservoirs,CO189,-106.32303,39.08144,WMT                1,36286,0.001873353,-106.3231673,39.08330831,-106.3231673,39.08330831,,,
170,CO,23,Chatfield Reservoir,CO23,-105.0583,39.55833,SPL                1,38063,0.003005641,-105.0608362,39.55994298,-105.0608362,39.55994298,,,
171,CO,26,Clear Creek Reservoir,CO26,-106.2472,39.02167,WMT                1,36393,0.00152563,-106.2461794,39.02053602,-106.2461794,39.02053602,,,
172,CO,34,Dillon Reservoir,CO34,-106.0656,39.61833,WMT                1,36145,0.000433451,-106.0651835,39.61845004,-106.0651835,39.61845004,,,
173,CO,51,Granby Reservoir,CO51,-105.8673,40.1487,WMT                1,37004,0.001663672,-105.8663605,40.14732698,-105.8663605,40.14732698,,,
174,CT,12,Deep River Reservoir,CT12,-72.245,41.55333,NAP                1,38544,0.000337405,-72.24513672,41.55363847,-72.24513672,41.55363847,,,
175,CT,15,Easton Reservoir,CT15,-73.25833,41.24833,NAP                1,38398,0.001524583,-73.25757051,41.24965194,-73.25757051,41.24965194,,,
176,CT,20,Lake Hammonassett,CT20,-72.61333,41.35833,NAP                1,38704,0.000847992,-72.61249065,41.35820928,-72.61249065,41.35820928,,,
177,CT,25,Lake Gaillard,CT25,-72.76667,41.33833,NAP                1,38639,0.000601218,-72.76606885,41.33833926,-72.76606885,41.33833926,,,
178,CT,30,Laurel Reservoir,CT30,-73.545,41.165,NAP                1,38414,7.76594E-05,-73.5450122,41.16507669,-73.5450122,41.16507669,,,
179,CT,31,Mansfield Hollow Reservoir,CT31,-72.18167,41.765,NAP                1,-1,-1,-1,-1,-72.18167,41.765,,,
180,CT,38,Moodus Reservoir,CT38,-72.42667,41.51333,NAP                1,-1,-1,-1,-1,-72.42667,41.51333,,,
181,CT,42,Pachaug Pond,CT42,-71.93,41.58167,NAP                2,38505,0.000598609,-71.92995769,41.58226711,-71.92995769,41.58226711,,,
182,CT,43,Nepaug Reservoir,CT43,-72.93166,41.79833,NAP                1,-1,-1,-1,-1,-72.93166,41.79833,,,
183,CT,5,Broad Brook Reservoir,CT5,-72.85833,41.52333,NAP                1,-1,-1,-1,-1,-72.85833,41.52333,,,
184,CT,50,Saugatuck Reservoir,CT50,-73.35,41.24833,NAP                1,38514,0.000265452,-73.34987669,41.24809493,-73.34987669,41.24809493,,,
185,CT,51,Barkhamsted Reservoir,CT51,-72.95333,41.91167,NAP                1,38548,0.000463893,-72.95371613,41.9119271,-72.95371613,41.9119271,,,
186,CT,54,Lake Lillinonah,CT54,-73.2964,41.4479,NAP                1,38635,0.000221727,-73.29635273,41.44811663,-73.29635273,41.44811663,,,
187,CT,56,Lake Zoar,CT56,-73.1721,41.3832,NAP                1,38693,0.000386702,-73.1720309,41.38358048,-73.1720309,41.38358048,,,
188,CT,6,Candlewood Lakes,CT6,-73.45,41.425,NAP                1,38528,0.002177843,-73.45042171,41.42713662,-73.45042171,41.42713662,,,
189,CT,60,Williams Pond,CT60,-72.30167,41.63,NAP                1,38730,0.000131446,-72.30161313,41.63011851,-72.30161313,41.63011851,,,
190,CT,64,Aspinook Pond,CT64,-71.978502,41.62404,NAP                1,38427,0.000498961,-71.97897302,41.62420463,-71.97897302,41.62420463,,,
191,CT,7,Colebrook River Reservoir,CT7,-73.03667,42,NAP                1,-1,-1,-1,-1,-73.03667,42,,,
192,CT,9,McDonough Reservoir,CT9,-72.95834,41.88,NAP                1,38540,0.000786138,-72.95781338,41.87941632,-72.95781338,41.87941632,,,
193,FL,110,Rodman,FL110,-81.69,29.47,CPL                3,39705,6.9001E-05,-81.6900326,29.46993919,-81.6900326,29.46993919,,,
194,FL,12,Edward Medard Reservoir,FL12,-82.16,27.91,CPL                4,-1,-1,-1,-1,-82.16,27.91,,,
195,FL,157,Juniper Lake,FL157,-86.130438,30.770159,CPL                1,-1,-1,-1,-1,-86.130438,30.770159,,,
196,FL,158,Deer Point,FL158,-85.587716,30.30139,CPL                1,-1,-1,-1,-1,-85.587716,30.30139,,,
197,FL,159,Garcia,FL159,-80.670211,27.676839,CPL                3,-1,-1,-1,-1,-80.670211,27.676839,,,
198,FL,160,Hurricane Lake,FL160,-86.758275,30.941102,CPL                1,-1,-1,-1,-1,-86.758275,30.941102,,,
199,FL,161,Stick Marsh,FL161,-80.726366,27.807498,CPL                3,-1,-1,-1,-1,-80.726366,27.807498,,,
200,FL,4,Tsala Apopka Chain of Lakes,FL4,-82.3,28.88,CPL                1,-1,-1,-1,-1,-82.3,28.88,,,
201,FL,74,Lake Rousseau,FL74,-82.61,29.02,CPL                1,-1,-1,-1,-1,-82.61,29.02,,,
202,GA,15,Lake Sidney Lanier,GA15,-84.07333,34.16,SAP                1,40520,0.002710406,-84.07603218,34.16021105,-84.07603218,34.16021105,,,
203,GA,16,Lake Burton,GA16,-83.5403,34.7937,SAP                1,40832,5.21204E-05,-83.54033944,34.79366592,-83.54033944,34.79366592,,,
204,GA,21,Lake Blackshear,GA21,-83.9346,31.8368,CPL                4,-1,-1,-1,-1,-83.9346,31.8368,,,
205,GA,23,Lake Worth,GA23,-84.137,31.6026,CPL                4,40253,0.000106814,-84.13690161,31.60255842,-84.13690161,31.60255842,,,
206,GA,27,Lake Hartwell,GA27,-82.48,34.21,SAP                1,91529,0.001969109,-82.48013242,34.21196465,-82.48013242,34.21196465,,,
207,GA,29,High Falls,GA29,-84.02028,33.17972,SAP                4,40696,7.04122E-05,-84.02024773,33.17978258,-84.02024773,33.17978258,,,
208,GA,37,Lake Juliette,GA37,-83.75528,33.03278,SAP                1,-1,-1,-1,-1,-83.75528,33.03278,,,
209,GA,42,Lake Tobesofkee,GA42,-83.77055,32.81972,SAP                1,40710,0.000402714,-83.77094903,32.81966566,-83.77094903,32.81966566,,,
210,GA,48,Jackson Lake,GA48,-83.8415,33.3206,SAP                3,41023,0.00050271,-83.84195374,33.32081643,-83.84195374,33.32081643,,,
211,GA,51,Lake Rabun,GA51,-83.4162,34.7654,SAP                1,40832,0.000113782,-83.41625501,34.7654996,-83.41625501,34.7654996,,,
212,GA,54,Lake Seed,GA54,-83.5012,34.7549,SAP                1,40832,4.10981E-05,-83.50121611,34.75493781,-83.50121611,34.75493781,,,
213,GA,56,Lake Nottely,GA56,-84.092,34.958,SAP                1,40974,0.000708892,-84.09220604,34.95867829,-84.09220604,34.95867829,,,
214,GA,74,Lake Sinclair,GA74,-83.2018,33.1405,SAP                1,41013,5.34345E-05,-83.2018522,33.14051143,-83.2018522,33.14051143,,,
215,GA,79,Javor Lucas Lake,GA79,-83.65916,32.90083,SAP                1,-1,-1,-1,-1,-83.65916,32.90083,,,
216,GA,81,Lake Tugalo,GA81,-83.3519,34.7144,SAP                1,41081,0.000464361,-83.35151276,34.71465628,-83.35151276,34.71465628,,,
217,GA,90,Lake Yonah,GA90,-83.3425,34.6814,SAP                1,41122,0.001117428,-83.3416267,34.68209713,-83.3416267,34.68209713,,,
218,GA,92,Lake Seminole,GA92,-84.874306,30.727081,CPL                3,39925,0.00117172,-84.87547771,30.72707716,-84.87547771,30.72707716,,,
219,GA,93,Walter F. George reservoir,GA93,-85.096092,31.683186,CPL                3,39988,0.002473163,-85.0978979,31.68149625,-85.0978979,31.68149625,,,
220,IA,10,Coralville Reservoir,IA10,-91.5293,41.7243,TPL                2,42420,0.00115157,-91.52814965,41.72435304,-91.52814965,41.72435304,,,
221,IA,13,Fertile Dam,IA13,-93.4217,43.2636,TPL                2,42013,0.000119366,-93.42171196,43.26371877,-93.42171196,43.26371877,,,
222,IA,14,FIve-in-one Dam,IA14,-91.6667,41.9833,TPL                2,-1,-1,-1,-1,-91.6667,41.9833,,,
223,IA,15,Green Valley,IA15,-94.3883,41.1062,TPL                1,41897,0.003373216,-94.38896002,41.10289199,-94.38896002,41.10289199,,,
224,IA,16,Lake Delhi,IA16,-91.3635,42.4102,TPL                1,41923,0.00040121,-91.36359957,42.40981134,-91.36359957,42.40981134,,,
225,IA,18,Casey Lake,IA18,-92.3106,42.2645,TPL                1,-1,-1,-1,-1,-92.3106,42.2645,,,
226,IA,19,Lake Nakomis,IA19,-94.2293,42.7267,TPL                2,42310,0.00067761,-94.22979782,42.72624029,-94.22979782,42.72624029,,,
227,IA,2,Badger Creek Lake,IA2,-93.9088,41.4683,TPL                1,42113,8.45895E-05,-93.90873842,41.46835799,-93.90873842,41.46835799,,,
228,IA,20,Independence Impoundment,IA20,-91.9005,42.4776,TPL                1,42021,0.0003687,-91.90086629,42.47755792,-91.90086629,42.47755792,,,
229,IA,21,Iowa Falls Impoundment,IA21,-93.2591,42.5186,TPL                2,42472,0.000381869,-93.25900017,42.51896859,-93.25900017,42.51896859,,,
230,IA,22,Lake Darling,IA22,-91.9062,41.2032,TPL                1,-1,-1,-1,-1,-91.9062,41.2032,,,
231,IA,23,Icaria,IA23,-94.7534,41.0481,TPL                1,42501,0.000863817,-94.75330357,41.04724158,-94.75330357,41.04724158,,,
232,IA,24,Lake Macbride,IA24,-91.5752,41.7937,TPL                1,42150,0.002610772,-91.57684275,41.79167084,-91.57684275,41.79167084,,,
233,IA,25,Lake of the Hills,IA25,-90.6821,41.5243,TPL                1,-1,-1,-1,-1,-90.6821,41.5243,,,
234,IA,28,Lake Sugema,IA28,-91.9869,40.6835,TPL                3,42452,0.000142053,-91.98684152,40.68362946,-91.98684152,40.68362946,,,
235,IA,29,Sundown Lake,IA29,-92.7212,40.8321,TPL                1,41671,0.001933653,-92.72079473,40.83020929,-92.72079473,40.83020929,,,
236,IA,30,Lake Wapello,IA30,-92.5722,40.8212,TPL                3,41669,0.00109189,-92.5716637,40.82024889,-92.5716637,40.82024889,,,
237,IA,31,Little River,IA31,-93.7785,40.7482,TPL                1,-1,-1,-1,-1,-93.7785,40.7482,,,
238,IA,32,Mississippi,IA32,-91.095,42.785,UMW                1,-1,-1,-1,-1,-91.095,42.785,,,
239,IA,35,Pool 12 Upper Mississippi River,IA35,-90.4221,42.2603,UMW                1,42679,0.000113606,-90.42220172,42.26024941,-90.42220172,42.26024941,,,
240,IA,36,Pool 13,IA36,-90.1547,41.8972,TPL                2,42679,0.002457451,-90.15698196,41.89811199,-90.15698196,41.89811199,,,
241,IA,37,Pool 14 Upper Mississippi River,IA37,-90.4003,41.5741,TPL                2,42692,0.002690032,-90.3991696,41.571659,-90.3991696,41.571659,,,
242,IA,38,Mississippi River Pool 15,IA38,-90.5638,41.5183,TPL                2,42692,0.001036801,-90.56434804,41.51918012,-90.56434804,41.51918012,,,
243,IA,39,Pool 16,IA39,-91.0102,41.425,TPL                2,42694,0.001003858,-91.01047048,41.42596673,-91.01047048,41.42596673,,,
244,IA,40,Pool 17,IA40,-91.0568,41.1917,TPL                2,42694,0.002310143,-91.05859513,41.19024594,-91.05859513,41.19024594,,,
245,IA,41,Pool 18,IA41,-91.024,40.8816,TPL                2,42680,0.000436333,-91.0243085,40.88190857,-91.0243085,40.88190857,,,
246,IA,42,Monticello Dam,IA42,-91.172,42.2446,TPL                2,41923,4.37163E-05,-91.17204372,42.24459977,-91.17204372,42.24459977,,,
247,IA,45,Des Moines River - Ottumwa Hydropower Project,IA45,-92.4067,41.01,TPL                2,42624,0.001823135,-92.40788748,41.00861663,-92.40788748,41.00861663,,,
248,IA,46,Pleasant Creek Lake,IA46,-91.8104,42.1257,TPL                1,-1,-1,-1,-1,-91.8104,42.1257,,,
249,IA,47,Rathbun Lake,IA47,-92.87667,40.82833,TPL                2,-1,-1,-1,-1,-92.87667,40.82833,,,
250,IA,48,Lake Red Rock,IA48,-92.9803,41.3695,TPL                2,42624,0.000224486,-92.98043992,41.36932445,-92.98043992,41.36932445,,,
251,IA,49,Robert's Creek Lake,IA49,-93.0277,41.42,TPL                2,-1,-1,-1,-1,-93.0277,41.42,,,
252,IA,5,Big Creek Lake,IA5,-93.7405,41.7818,TPL                2,-1,-1,-1,-1,-93.7405,41.7818,,,
253,IA,50,Rock Creek Lake,IA50,-92.8538,41.7381,TPL                2,41612,0.00151597,-92.85384862,41.73658481,-92.85384862,41.73658481,,,
254,IA,51,Saylorville Lake,IA51,-93.6811,41.7036,TPL                2,-1,-1,-1,-1,-93.6811,41.7036,,,
255,IA,52,Sun Valley,IA52,-94.0597,40.8637,TPL                3,-1,-1,-1,-1,-94.0597,40.8637,,,
256,IA,53,Three Mile,IA53,-94.2119,41.0724,TPL                1,41974,0.00081756,-94.21235155,41.07171845,-94.21235155,41.07171845,,,
257,IA,54,Twelve Mile,IA54,-94.2569,41.053,TPL                1,41798,0.003947659,-94.25303929,41.05382396,-94.25303929,41.05382396,,,
258,IA,56,West Lake Osceola,IA56,-93.8057,41.0408,TPL                1,-1,-1,-1,-1,-93.8057,41.0408,,,
259,IA,58,Mississippi,IA58,-91.09967,43.227256,UMW                1,-1,-1,-1,-1,-91.09967,43.227256,,,
260,IA,59,Mississippi,IA59,-91.241827,43.611968,UMW                1,62133,0.000564648,-91.24235799,43.61216004,-91.24235799,43.61216004,,,
261,IA,6,Brushy Creek,IA6,-93.9789,42.3873,TPL                3,42056,0.000348264,-93.97923377,42.38739942,-93.97923377,42.38739942,,,
262,IA,9,Roller Dam,IA9,-91.6302,41.9446,TPL                2,42639,0.000744988,-91.63009449,41.94386252,-91.63009449,41.94386252,,,
263,ID,11,Bybee Reservoir,ID11,-116.2676,42.24955,XER                3,-1,-1,-1,-1,-116.2676,42.24955,,,
264,ID,13,C.J. Strike Reservoir,ID13,-115.9759,42.947,XER                3,43148,0.000856298,-115.9761645,42.94618557,-115.9761645,42.94618557,,,
265,ID,14,Cabinet Gorge Reservoir,ID14,-116.0633,48.0867,WMT                2,43760,0.000977255,-116.0631643,48.08766779,-116.0631643,48.08766779,,,
266,ID,16,Crane Creek Reservoir,ID16,-116.6171,44.3568,XER                3,43709,9.49818E-05,-116.6171785,44.35685346,-116.6171785,44.35685346,,,
267,ID,2,Pend Oreille River,ID2,-117,48.18,WMT                2,43286,0.001164281,-117.0003921,48.17890375,-117.0003921,48.17890375,,,
268,ID,21,Lake Lowell,ID21,-116.7361,43.58278,XER                3,-1,-1,-1,-1,-116.7361,43.58278,,,
269,ID,27,Fish Creek Reservoir,ID27,-113.8323,43.42268,WMT                2,43983,0.004366068,-113.8283477,43.42082477,-113.8283477,43.42082477,,,
270,ID,28,Gem Lake,ID28,-112.102,43.4219,XER                2,43183,0.000270741,-112.1018586,43.42166909,-112.1018586,43.42166909,,,
271,ID,3,Ashton Reservoir,ID3,-111.4961,44.2453,WMT                2,-1,-1,-1,-1,-111.4961,44.2453,,,
272,ID,33,Hayden Lake,ID33,-116.7586,47.75,WMT                1,-1,-1,-1,-1,-116.7586,47.75,,,
273,ID,35,Henrys Lake,ID35,-111.3533,44.59729,WMT                2,44763,2.9668E-05,-111.353309,44.59726172,-111.353309,44.59726172,,,
274,ID,38,Little Camas Reservoir,ID38,-115.3902,43.35206,WMT                2,44346,0.000266082,-115.3904386,43.35194219,-115.3904386,43.35194219,,,
275,ID,4,Blackfoot Reservoir,ID4,-111.7166,43.00378,XER                3,43733,0.000194137,-111.7167148,43.00393653,-111.7167148,43.00393653,,,
276,ID,44,Lucky Peak Lake,ID44,-116.0537,43.52797,WMT                2,44124,0.002760462,-116.0539238,43.52521863,-116.0539238,43.52521863,,,
277,ID,45,Mackay REservoir,ID45,-113.6732,43.95269,WMT                2,44131,0.001452787,-113.6736426,43.95130628,-113.6736426,43.95130628,,,
278,ID,46,Magic Reservoir,ID46,-114.3569,43.2547,XER                3,44246,0.004259252,-114.360132,43.25192596,-114.360132,43.25192596,,,
279,ID,48,Milner Reservoir,ID48,-114.0085,42.5256,XER                3,43299,0.000835275,-114.0086528,42.52642118,-114.0086528,42.52642118,,,
280,ID,51,Mountain Home Reservoir,ID51,-115.6624,43.15713,XER                3,-1,-1,-1,-1,-115.6624,43.15713,,,
281,ID,59,Paddock Reservoir,ID59,-116.5989,44.19832,XER                3,43805,0.000542198,-116.598669,44.19782946,-116.598669,44.19782946,,,
282,ID,64,Lake Coeur d'alene,ID64,-116.961,47.709,WMT                2,42874,7.1334E-05,-116.961031,47.70893575,-116.961031,47.70893575,,,
283,ID,70,Priest Lake,ID70,-116.9027,48.4906,WMT                1,43309,0.000230163,-116.9028533,48.49077172,-116.9028533,48.49077172,,,
284,ID,71,Salmon Falls Creek Reservoir,ID71,-114.7342,42.21199,XER                3,43475,0.000542087,-114.7346238,42.21165198,-114.7346238,42.21165198,,,
285,ID,76,Swan Falls Reservoir,ID76,-116.3785,43.2431,XER                3,42840,0.001706793,-116.3796311,43.24182183,-116.3796311,43.24182183,,,
286,ID,77,Twin Lakes,ID77,-116.8644,47.8582,WMT                1,44196,0.000248786,-116.8645514,47.85839743,-116.8645514,47.85839743,,,
287,ID,8,Brownlee Reservoir,ID8,-116.9006,44.8368,WMT                2,44922,0.000906139,-116.9014353,44.83715133,-116.9014353,44.83715133,,,
288,ID,81,American Falls Reservoir,ID81,-112.708168,42.962955,XER                3,42918,0.000912616,-112.7072556,42.96293507,-112.7072556,42.96293507,,,
289,ID,82,Arrowrock Reservoir,ID82,-115.854321,43.603516,WMT                2,44124,0.001277403,-115.853729,43.60238405,-115.853729,43.60238405,,,
290,ID,83,Island Park Reservoir,ID83,-111.528082,44.399203,WMT                2,44793,0.001311819,-111.5284254,44.40046908,-111.5284254,44.40046908,,,
291,IL,10,Carlyle Lake,IL10,-89.35229,38.61882,TPL                1,45624,0.000545879,-89.35270315,38.61917678,-89.35270315,38.61917678,,,
292,IL,104,vandalia lake,IL104,-89.1133,39.0117,TPL                1,45054,0.000480542,-89.11337708,39.01217432,-89.11337708,39.01217432,,,
293,IL,108,Silver Lake,IL108,-88.244722,42.235,TPL                1,-1,-1,-1,-1,-88.244722,42.235,,,
294,IL,14,Cedar Lake,IL14,-89.2833,37.66,SAP                1,45355,0.002449564,-89.28543302,37.6587956,-89.28543302,37.6587956,,,
295,IL,16,Clinton Lake,IL16,-88.8717,40.135,TPL                1,-1,-1,-1,-1,-88.8717,40.135,,,
296,IL,18,Coffeen Lake,IL18,-89.3867,39.035,TPL                3,45903,0.001799516,-89.38504955,39.03571712,-89.38504955,39.03571712,,,
297,IL,30,Dunlap Lake,IL30,-89.9383,38.8083,TPL                1,-1,-1,-1,-1,-89.9383,38.8083,,,
298,IL,31,East Fork Lake,IL31,-88.0567,38.7583,TPL                3,-1,-1,-1,-1,-88.0567,38.7583,,,
299,IL,34,Governor Bond Lake,IL34,-89.3967,38.935,TPL                1,-1,-1,-1,-1,-89.3967,38.935,,,
300,IL,36,Holiday Shores Lake,IL36,-89.9333,38.91,TPL                1,-1,-1,-1,-1,-89.9333,38.91,,,
301,IL,41,Kinkaid Lake,IL41,-89.4533,37.7783,TPL                3,45202,0.002273967,-89.45224509,37.78031447,-89.45224509,37.78031447,,,
302,IL,42,Lake Bloomington,IL42,-88.9367,40.6617,TPL                1,46039,0.001400745,-88.93607345,40.66295281,-88.93607345,40.66295281,,,
303,IL,43,Lake Carlinville 1 ; Lake Carlinville Old Lake,IL43,-89.8667,39.2433,TPL                1,-1,-1,-1,-1,-89.8667,39.2433,,,
304,IL,45,Lake Centralia,IL45,-89.0083,38.5583,TPL                1,-1,-1,-1,-1,-89.0083,38.5583,,,
305,IL,48,Lake Decatur,IL48,-88.9667,39.75,TPL                2,-1,-1,-1,-1,-88.9667,39.75,,,
306,IL,49,Lake Jacksonville,IL49,-90.2133,39.6717,TPL                1,45927,0.000249588,-90.21321895,39.67146394,-90.21321895,39.67146394,,,
307,IL,50,Lake Lou Yaeger,IL50,-89.6017,39.1867,TPL                1,46287,0.001284731,-89.60179882,39.18798092,-89.60179882,39.18798092,,,
308,IL,51,Lake Mattoon,IL51,-88.4817,39.3333,TPL                2,45059,0.001527413,-88.48292549,39.33238831,-88.48292549,39.33238831,,,
309,IL,52,Lake Mingo,IL52,-87.7333,40.205,TPL                3,46327,0.002499055,-87.73484844,40.20303846,-87.73484844,40.20303846,,,
310,IL,54,lake sara,IL54,-88.6167,39.125,TPL                1,45236,0.00102587,-88.61770987,39.12518048,-88.61770987,39.12518048,,,
311,IL,55,Lake Shelbyville,IL55,-88.78059,39.40951,TPL                2,45013,0.000424555,-88.7804634,39.40910476,-88.7804634,39.40910476,,,
312,IL,57,Lake Taylorville,IL57,-89.255,39.53,TPL                2,46325,0.000145385,-89.25508574,39.53011741,-89.25508574,39.53011741,,,
313,IL,59,Lake Vermilion,IL59,-87.6517,40.1567,TPL                1,46069,0.000181426,-87.65169261,40.15651872,-87.65169261,40.15651872,,,
314,IL,6,Busse Lake South Pool,IL6,-88,42.01,TPL                1,46587,0.001309849,-88.00130936,42.00996436,-88.00130936,42.00996436,,,
315,IL,65,Lake Mauvaise Terre,IL65,-90.2183,39.72,TPL                1,-1,-1,-1,-1,-90.2183,39.72,,,
316,IL,67,Mill Creek Lake,IL67,-87.7933,39.4033,TPL                2,46073,0.001127852,-87.79253606,39.40412972,-87.79253606,39.40412972,,,
317,IL,70,Gillespie New City Lake,IL70,-89.8867,39.145,TPL                1,-1,-1,-1,-1,-89.8867,39.145,,,
318,IL,72,Newton Lake,IL72,-88.3033,38.885,TPL                3,46173,0.000136968,-88.30339579,38.8849021,-88.30339579,38.8849021,,,
319,IL,73,Newton Lake Cooling Loop,IL73,-88.3,38.8833,TPL                3,46173,0.002065585,-88.30187275,38.88242853,-88.30187275,38.88242853,,,
320,IL,76,Otter Lake,IL76,-89.91,39.4067,TPL                1,-1,-1,-1,-1,-89.91,39.4067,,,
321,IL,77,Pana Lake,IL77,-89.0217,39.3617,TPL                2,45358,0.001766997,-89.02314924,39.36068907,-89.02314924,39.36068907,,,
322,IL,78,Pinckneyville City Lake,IL78,-89.395,38.0933,TPL                3,-1,-1,-1,-1,-89.395,38.0933,,,
323,IL,79,Powerton Lake,IL79,-89.6883,40.54,TPL                3,-1,-1,-1,-1,-89.6883,40.54,,,
324,IL,80,Prairie Lake,IL80,-90.055,40,TPL                3,-1,-1,-1,-1,-90.055,40,,,
325,IL,81,raccoon lake,IL81,-89.1083,38.5433,TPL                2,46439,0.001858646,-89.10754331,38.54499764,-89.10754331,38.54499764,,,
326,IL,82,Rend Lake,IL82,-88.94978,38.0367,TPL                2,-1,-1,-1,-1,-88.94978,38.0367,,,
327,IL,84,Round Lake,IL84,-88.055,42.221,TPL                1,-1,-1,-1,-1,-88.055,42.221,,,
328,IL,86,Lake Sangchris,IL86,-89.5,39.6667,TPL                3,-1,-1,-1,-1,-89.5,39.6667,,,
329,IL,88,Skokie Lagoons,IL88,-87.773395,42.125856,TPL                1,46317,0.000358612,-87.77373232,42.12573428,-87.77373232,42.12573428,,,
330,IL,90,Lake Springfield,IL90,-89.5967,39.76,TPL                1,46505,0.001004364,-89.59702639,39.75905015,-89.59702639,39.75905015,,,
331,IL,98,forbes lake,IL98,-88.7483,38.7117,TPL                1,-1,-1,-1,-1,-88.7483,38.7117,,,
332,IL,99,Fox Chain O' Lakes,IL99,-88.151,42.186,TPL                1,-1,-1,-1,-1,-88.151,42.186,,,
333,IN,10,Eagle Creek Reservoir,IN10,-86.3075,39.825,TPL                1,47740,0.003190748,-86.3051894,39.82720045,-86.3051894,39.82720045,,,
334,IN,13,Gibson Lake,IN13,-87.75694,38.33472,TPL                3,-1,-1,-1,-1,-87.75694,38.33472,,,
335,IN,14,Dogwood Lake,IN14,-87.05889,38.53778,TPL                3,-1,-1,-1,-1,-87.05889,38.53778,,,
336,IN,18,Hardy Lake,IN18,-85.71,38.79111,TPL                1,47179,2.29002E-05,-85.70999149,38.79113126,-85.70999149,38.79113126,,,
337,IN,20,Turtle Creek Reservoir,IN20,-87.52583,39.04333,TPL                1,47222,1.89779E-05,-87.52581621,39.04334303,-87.52581621,39.04334303,,,
338,IN,22,J.C. Murphey Lake,IN22,-87.51833,40.97417,TPL                3,47246,0.000146365,-87.51832493,40.97431628,-87.51832493,40.97431628,,,
339,IN,23,Roush Lake,IN23,-85.47,40.84667,TPL                2,47164,0.00122555,-85.47009399,40.84544806,-85.47009399,40.84544806,,,
340,IN,27,Kickapoo Lake,IN27,-87.2475,39.16,TPL                3,47590,0.000737136,-87.24820715,39.15979189,-87.24820715,39.15979189,,,
341,IN,28,Kokomo Reservoir,IN28,-86.05028,40.48833,TPL                2,47210,0.001270925,-86.04941975,40.48739447,-86.04941975,40.48739447,,,
342,IN,30,Lake George,IN30,-87.25806,41.535,TPL                1,47617,0.000312056,-87.25775019,41.53496264,-87.25775019,41.53496264,,,
343,IN,32,Lake Lemon,IN32,-86.42528,39.27222,SAP                4,47652,0.002556817,-86.42293161,39.27323112,-86.42293161,39.27323112,,,
344,IN,37,Sullivan Lake,IN37,-87.375,39.10167,TPL                1,-1,-1,-1,-1,-87.375,39.10167,,,
345,IN,40,Mississinewa Reservoir,IN40,-85.95833,40.70833,TPL                2,-1,-1,-1,-1,-85.95833,40.70833,,,
346,IN,41,Monroe Lake,IN41,-86.51167,39,SAP                4,46925,0.003454767,-86.50968485,38.99717253,-86.50968485,38.99717253,,,
347,IN,46,Lake Shafer,IN46,-86.76,40.78,UMW                1,47134,0.000519107,-86.75965082,40.78038412,-86.75965082,40.78038412,,,
348,IN,47,Lake Freeman,IN47,-86.7533,40.6566,TPL                1,46814,6.92328E-05,-86.75323135,40.65659104,-86.75323135,40.65659104,,,
349,IN,49,Patoka Lake,IN49,-86.70833,38.435,SAP                4,47213,0.000956788,-86.70740651,38.4352502,-86.70740651,38.4352502,,,
350,IN,5,Brookville Reservoir,IN5,-85,39.44,TPL                1,47366,0.00210739,-85.00128657,39.44166908,-85.00128657,39.44166908,,,
351,IN,50,Worster Lake,IN50,-86.37028,41.54944,UMW                1,47312,0.00061203,-86.37086918,41.54927432,-86.37086918,41.54927432,,,
352,IN,54,Salamonie Reservoir,IN54,-85.68,40.80833,TPL                2,46962,0.000796234,-85.67951291,40.80895987,-85.67951291,40.80895987,,,
353,IN,55,Summit Lake,IN55,-85.32583,40.02333,TPL                3,47338,0.000999384,-85.3257078,40.02432188,-85.3257078,40.02432188,,,
354,IN,6,Cagle's Mill Reservoir,IN6,-86.91667,39.48667,SAP                3,47195,0.001032947,-86.91641967,39.48767215,-86.91641967,39.48767215,,,
355,IN,64,West Boggs Creek Lake,IN64,-86.92,38.72,TPL                1,-1,-1,-1,-1,-86.92,38.72,,,
356,IN,7,Harden Reservoir,IN7,-87.07167,39.71833,TPL                3,46936,9.6759E-05,-87.0715741,39.71834288,-87.0715741,39.71834288,,,
357,IN,8,Cedarville Reservoir,IN8,-85.01833,41.19889,TPL                2,46969,0.00081677,-85.01913561,41.19875545,-85.01913561,41.19875545,,,
358,KS,10,Clinton Reservoir,KS10,-95.33,38.92333,TPL                1,-1,-1,-1,-1,-95.33,38.92333,,,
359,KS,11,Coffey County Lake,KS11,-95.67645,38.19311,TPL                3,-1,-1,-1,-1,-95.67645,38.19311,,,
360,KS,12,Council Grove Reservoir,KS12,-96,38.67833,TPL                1,-1,-1,-1,-1,-96,38.67833,,,
361,KS,13,Critzer Res ervoir,KS13,-94.92422,38.1461,TPL                3,49136,0.001080507,-94.92366042,38.14702432,-94.92366042,38.14702432,,,
362,KS,16,Banner Creek Reservoir,KS16,-95.76306,39.45501,TPL                1,-1,-1,-1,-1,-95.76306,39.45501,,,
363,KS,17,El Dorado Reservoir,KS17,-96.82167,37.84667,TPL                1,48718,0.002037364,-96.82292981,37.84827117,-96.82292981,37.84827117,,,
364,KS,18,Elk City Lake,KS18,-96.78333,37.28167,TPL                2,48646,0.001061494,-96.78243273,37.28223716,-96.78243273,37.28223716,,,
365,KS,2,Clark State Fishing Lake,KS2,-99.8996,37.41603,SPL                1,48852,0.000459904,-99.89961684,37.4164896,-99.89961684,37.4164896,,,
366,KS,20,Fall River Reservoir,KS20,-96.07,37.64667,TPL                2,49225,0.000115532,-96.07008298,37.64658961,-96.07008298,37.64658961,,,
367,KS,21,Glen Elder Reservoir,KS21,-98.31556,39.49639,SPL                5,-1,-1,-1,-1,-98.31556,39.49639,,,
368,KS,24,Hillsdale,KS24,-94.89833,38.65333,TPL                3,49168,0.00202073,-94.89949174,38.65498339,-94.89949174,38.65498339,,,
369,KS,25,Jeffrey Energy Center Auxiliary Make-Up Lake,KS25,-96.15303,39.23954,TPL                3,-1,-1,-1,-1,-96.15303,39.23954,,,
370,KS,26,John Redmond Reservoir,KS26,-95.755,38.24167,TPL                2,48507,0.000778278,-95.75568458,38.24129978,-95.75568458,38.24129978,,,
371,KS,28,Kanopolis Reservoir,KS28,-97.97,38.62167,SPL                3,48821,0.003400881,-97.96679466,38.62280658,-97.96679466,38.62280658,,,
372,KS,29,Kirwin,KS29,-99.12744,39.66199,SPL                3,-1,-1,-1,-1,-99.12744,39.66199,,,
373,KS,30,La Cygne Reservoir,KS30,-94.65388,38.33883,TPL                3,-1,-1,-1,-1,-94.65388,38.33883,,,
374,KS,31,Lake Coldwater,KS31,-99.34969,37.24305,SPL                5,49643,3.67238E-05,-99.34965648,37.243035,-99.34965648,37.243035,,,
375,KS,35,Lovewell Reservoir,KS35,-98.02681,39.89019,SPL                5,-1,-1,-1,-1,-98.02681,39.89019,,,
376,KS,36,Empire Lake,KS36,-94.70356,37.06488,SAP                3,-1,-1,-1,-1,-94.70356,37.06488,,,
377,KS,37,Marion Reservoir,KS37,-97.08333,38.36833,TPL                2,49676,0.000260095,-97.08349288,38.36812722,-97.08349288,38.36812722,,,
378,KS,39,Melvern Lake,KS39,-95.705,38.515,TPL                1,48762,0.002177227,-95.70378037,38.51319645,-95.70378037,38.51319645,,,
379,KS,4,Big Hill Lake,KS4,-95.47,37.26833,TPL                3,49461,0.00031995,-95.47031789,37.26836623,-95.47031789,37.26836623,,,
380,KS,40,Milford Reservoir,KS40,-96.895,39.08333,TPL                2,-1,-1,-1,-1,-96.895,39.08333,,,
381,KS,42,Centralia City Lake,KS42,-96.16273,39.70486,TPL                1,-1,-1,-1,-1,-96.16273,39.70486,,,
382,KS,45,"Cedar Creek Reservoir, BB County",KS45,-94.79356,37.81879,TPL                3,48737,0.001877415,-94.79289471,37.81703442,-94.79289471,37.81703442,,,
383,KS,46,Neosho Wildlife Area,KS46,-95.12981,37.47934,TPL                1,-1,-1,-1,-1,-95.12981,37.47934,,,
384,KS,47,Wellington City Lake,KS47,-97.52805,37.20278,SPL                5,-1,-1,-1,-1,-97.52805,37.20278,,,
385,KS,48,Keith Sebelius,KS48,-99.93112,39.80445,SPL                3,48047,0.004440134,-99.93135295,39.80001598,-99.93135295,39.80001598,,,
386,KS,5,Bone Creek Reservoir,KS5,-94.73259,37.62194,TPL                3,-1,-1,-1,-1,-94.73259,37.62194,,,
387,KS,50,Perry Reservoir,KS50,-95.425,39.11167,TPL                1,48869,0.000756019,-95.42447231,39.11221139,-95.42447231,39.11221139,,,
388,KS,52,Pomona Reservoir,KS52,-95.55667,38.65167,TPL                2,-1,-1,-1,-1,-95.55667,38.65167,,,
389,KS,54,Winfield City Lake,KS54,-96.89335,37.3499,TPL                1,48795,0.000989269,-96.89392235,37.35070689,-96.89392235,37.35070689,,,
390,KS,55,Toronto Reservoir,KS55,-95.93333,37.73833,SPL                5,49623,0.00054957,-95.9331051,37.73883144,-95.9331051,37.73883144,,,
391,KS,56,Tuttle Creek Reservoir,KS56,-96.59,39.25667,TPL                2,-1,-1,-1,-1,-96.59,39.25667,,,
392,KS,58,Webster Reservoir,KS58,-99.42342,39.40802,SPL                3,48597,0.002702687,-99.42083392,39.4072347,-99.42083392,39.4072347,,,
393,KS,60,Wilson Reservoir,KS60,-98.495,38.96833,SPL                1,48539,0.001514421,-98.49627647,38.96914493,-98.49627647,38.96914493,,,
394,KS,61,Wyandotte County Lake,KS61,-94.77526,39.16857,TPL                3,-1,-1,-1,-1,-94.77526,39.16857,,,
395,KS,62,Ft. Scott City Lake,KS62,-94.75629,37.782248,TPL                3,-1,-1,-1,-1,-94.75629,37.782248,,,
396,KS,63,Quivera Boy Scout Lake,KS63,-96.186997,37.234668,SPL                1,48126,0.00052443,-96.18700647,37.23414366,-96.18700647,37.23414366,,,
397,KS,64,Lake Kahola,KS64,-96.420829,38.523022,TPL                3,49440,0.000840425,-96.42064886,38.52220111,-96.42064886,38.52220111,,,
398,KS,65,Parsons City Lake,KS65,-95.338869,37.404801,TPL                1,49284,7.76275E-05,-95.33893038,37.40475348,-95.33893038,37.40475348,,,
399,KS,66,Horsethief Reservoir,KS66,-100.05372,38.059175,SPL                1,49073,0.000810547,-100.0543344,38.05970362,-100.0543344,38.05970362,,,
400,KS,67,Finney State Fishing Lake,KS67,-100.8854,37.9499,SPL                2,-1,-1,-1,-1,-100.8854,37.9499,,,
401,KS,68,Middle Creek State Fishing Lake,KS68,-94.6861,38.5036,TPL                1,48637,0.001432574,-94.68605306,38.5021682,-94.68605306,38.5021682,,,
402,KS,69,Carbondale City Lake,KS69,-95.6402,38.81776,TPL                2,-1,-1,-1,-1,-95.6402,38.81776,,,
403,KS,7,Cedar Bluff Reservoir,KS7,-99.72222,38.79389,SPL                3,-1,-1,-1,-1,-99.72222,38.79389,,,
404,KS,70,Eureka City Lake,KS70,-96.2904,37.8975,TPL                2,49096,0.00334466,-96.29370012,37.89695596,-96.29370012,37.89695596,,,
405,KS,71,Herington City Lake,KS71,-97.0062,38.6618,TPL                1,48787,0.000838118,-97.0065742,38.66105006,-97.0065742,38.66105006,,,
406,KS,72,Herington Reservoir,KS72,-96.9989,38.6691,TPL                2,48011,0.003684454,-97.00000713,38.67261418,-97.00000713,38.67261418,,,
407,KS,73,Lake Shawnee,KS73,-95.8036,39.2003,TPL                1,-1,-1,-1,-1,-95.8036,39.2003,,,
408,KS,74,Lake Afton,KS74,-97.6313,37.606,SPL                3,-1,-1,-1,-1,-97.6313,37.606,,,
409,KS,75,Harvey County East Lake,KS75,-97.1976,38.046,SPL                3,48034,0.000213516,-97.19748187,38.04617786,-97.19748187,38.04617786,,,
410,KS,76,Council Grove City Lake,KS76,-96.55344,38.67764,TPL                1,-1,-1,-1,-1,-96.55344,38.67764,,,
411,KS,8,Cedar Valley Reservoir,KS8,-95.31197,38.25708,TPL                2,48968,0.00234992,-95.31072036,38.25508989,-95.31072036,38.25508989,,,
412,KS,9,Cheney Reservoir,KS9,-97.80196,37.72297,SPL                5,-1,-1,-1,-1,-97.80196,37.72297,,,
413,KY,10,Dewey Lake,KY10,-82.73,37.73667,SAP                3,50829,0.000111642,-82.7300717,37.73658443,-82.7300717,37.73658443,,,
414,KY,11,Herrington Lake,KY11,-84.70583,37.78556,SAP                3,51142,0.001033764,-84.70527195,37.7846898,-84.70527195,37.7846898,,,
415,KY,12,doe valley lake,KY12,-86.11611,37.99861,SAP                1,51004,0.000263819,-86.11627653,37.99881461,-86.11627653,37.99881461,,,
416,KY,13,Fishtrap Lake,KY13,-82.41667,37.43167,SAP                3,50853,0.001196216,-82.41562577,37.43225354,-82.41562577,37.43225354,,,
417,KY,14,Grayson Lake,KY14,-82.985,38.25333,SAP                1,50530,0.001208519,-82.98572347,38.25236195,-82.98572347,38.25236195,,,
418,KY,15,Green River Lake,KY15,-85.34167,37.245,SAP                1,50818,0.000190835,-85.34182605,37.24510985,-85.34182605,37.24510985,,,
419,KY,16,Spotsville pool Green River,KY16,-87.40833,37.85833,TPL                1,50472,0.001531822,-87.40946486,37.85730113,-87.40946486,37.85730113,,,
420,KY,17,Green River Calhoun pool,KY17,-87.265,37.53167,TPL                1,51122,0.000282463,-87.2652386,37.53151882,-87.2652386,37.53151882,,,
421,KY,18,Green River Lock 3 Pool,KY18,-86.9,37.21333,TPL                3,50818,0.000789295,-86.89922149,37.21319999,-86.89922149,37.21319999,,,
422,KY,19,Green River Lock 5 pool,KY19,-86.40333,37.16833,TPL                3,50818,0.00063295,-86.40345828,37.16894981,-86.40345828,37.16894981,,,
423,KY,2,Lake Barkley,KY2,-88.22,37.02167,SAP                3,-1,-1,-1,-1,-88.22,37.02167,,,
424,KY,20,Green River Lock 6 pool,KY20,-86.26,37.20667,TPL                3,50818,0.000673633,-86.26043177,37.20615293,-86.26043177,37.20615293,,,
425,KY,21,Greenup Pool,KY21,-82.85833,38.64667,SAP                3,51183,0.000397994,-82.85871883,38.64658509,-82.85871883,38.64658509,,,
426,KY,22,Guist Creek Lake,KY22,-85.15833,38.20722,SAP                3,50615,7.23056E-06,-85.15833674,38.20721739,-85.15833674,38.20721739,,,
427,KY,23,Uniontown Pool Ohio River,KY23,-87.95833,37.77,TPL                1,50346,0.000850347,-87.95808013,37.77081281,-87.95808013,37.77081281,,,
428,KY,24,Kentukcy Lake,KY24,-88.108,36.242,CPL                3,-1,-1,-1,-1,-88.108,36.242,,,
429,KY,25,Kentucky River Pool 11,KY25,-84.1032,37.78443,SAP                4,50822,0.000103826,-84.10321925,37.78453203,-84.10321925,37.78453203,,,
430,KY,26,Kentucky River Pool 12,KY26,-83.9482,37.67731,SAP                1,50822,9.72475E-05,-83.94827332,37.67737388,-83.94827332,37.67737388,,,
431,KY,27,Kentucky River pool 13,KY27,-83.8327,37.60166,SAP                1,50822,0.001832544,-83.83361782,37.60324614,-83.83361782,37.60324614,,,
432,KY,28,Kentucky River pool 14,KY28,-83.7696,37.55246,SAP                1,51063,0.001178693,-83.76897756,37.55145906,-83.76897756,37.55145906,,,
433,KY,29,Pool 5 Kentucky River,KY29,-84.8304,38.05214,SAP                3,50822,0.002887282,-84.83256957,38.05404509,-84.83256957,38.05404509,,,
434,KY,3,Barren River Lake,KY3,-86.125,36.89667,SAP                4,50505,0.003495577,-86.12622664,36.89339671,-86.12622664,36.89339671,,,
435,KY,30,Pool 6 Kentucky River,KY30,-84.8215,37.92678,SAP                3,50822,0.000139533,-84.82142711,37.92666102,-84.82142711,37.92666102,,,
436,KY,31,Pool 7 Kentucky River,KY31,-84.7242,37.82954,SAP                3,50822,3.82756E-05,-84.72416217,37.8295342,-84.72416217,37.8295342,,,
437,KY,32,Pool 8 Kentucky River,KY32,-84.5871,37.74568,SAP                3,50822,0.00016696,-84.58723861,37.74577307,-84.58723861,37.74577307,,,
438,KY,33,Pool 9 Kentucky River,KY33,-84.4404,37.84329,SAP                3,50822,0.000103817,-84.44046159,37.84337357,-84.44046159,37.84337357,,,
439,KY,35,Laurel River Lake,KY35,-84.27333,36.95667,SAP                1,50959,0.003683017,-84.27688551,36.95763069,-84.27688551,36.95763069,,,
440,KY,37,Markland Pool,KY37,-84.965,38.77667,SAP                3,49896,0.001151185,-84.96513082,38.77781373,-84.96513082,38.77781373,,,
441,KY,38,Martins Fork Lake,KY38,-83.25833,36.75167,SAP                1,49866,0.001276755,-83.25900668,36.75275269,-83.25900668,36.75275269,,,
442,KY,39,McAlpine Pool,KY39,-85.76833,38.27167,SAP                3,50378,0.002179837,-85.76984001,38.27009788,-85.76984001,38.27009788,,,
443,KY,4,Lake Beshear,KY4,-87.68139,37.14833,TPL                3,51168,0.00017721,-87.68122775,37.14825873,-87.68122775,37.14825873,,,
444,KY,40,Lake Malone,KY40,-87.03333,37.08167,TPL                3,50203,0.001183437,-87.03219309,37.08199856,-87.03219309,37.08199856,,,
445,KY,41,Newburgh Pool,KY41,-87.375,37.92833,TPL                1,50338,0.000697429,-87.37468966,37.92895458,-87.37468966,37.92895458,,,
446,KY,42,Nolin River Lake,KY42,-86.245,37.27833,TPL                3,50177,0.002497018,-86.24718335,37.27954165,-86.24718335,37.27954165,,,
447,KY,43,Ohio River L&D 52,KY43,-88.65167,37.12167,TPL                1,50159,0.000584551,-88.65182179,37.1211055,-88.65182179,37.1211055,,,
448,KY,44,Ohio River  L&D 53,KY44,-89.03667,37.19833,TPL                1,46693,0.000991261,-89.03726192,37.19912513,-89.03726192,37.19912513,,,
449,KY,45,Paintsville Lake,KY45,-82.87,37.83667,SAP                1,50171,0.000721308,-82.87072108,37.83665201,-82.87072108,37.83665201,,,
450,KY,46,Lake Linville,KY46,-84.33472,37.38278,SAP                4,50985,0.000587623,-84.33491649,37.3833338,-84.33491649,37.3833338,,,
451,KY,47,Rough River Lake,KY47,-86.5,37.62,SAP                1,50220,8.85211E-05,-86.50004908,37.61992633,-86.50004908,37.61992633,,,
452,KY,48,Taylorsville Lake,KY48,-85.31667,38,SAP                3,-1,-1,-1,-1,-85.31667,38,,,
453,KY,49,Williamstown Lake,KY49,-84.51833,38.67667,SAP                3,49972,0.000413376,-84.51853722,38.67702769,-84.51853722,38.67702769,,,
454,KY,5,Buckhorn Lake,KY5,-83.47167,37.34,SAP                3,50191,0.001046053,-83.47066558,37.33970781,-83.47066558,37.33970781,,,
455,KY,50,Lake Cumberland,KY50,-85.145,36.87167,SAP                1,50976,0.003444232,-85.14742614,36.86922529,-85.14742614,36.86922529,,,
456,KY,51,Wood Creek Lake,KY51,-84.19722,37.21389,SAP                1,50091,0.000157989,-84.19737467,37.2139222,-84.19737467,37.2139222,,,
457,KY,52,Yatesville Lake,KY52,-82.69833,38.12667,SAP                3,50731,0.000250651,-82.69811836,38.12653571,-82.69811836,38.12653571,,,
458,KY,6,Ohio River Cannelton pool,KY6,-84.38667,38.87722,SAP                1,-1,-1,-1,-1,-84.38667,38.87722,,,
459,KY,7,Carr Creek Lake,KY7,-83.05667,37.22333,SAP                3,50761,0.00399668,-83.05418765,37.22019769,-83.05418765,37.22019769,,,
460,KY,77,Cedar Creek Lake,KY77,-84.551153,37.489842,SAP                1,-1,-1,-1,-1,-84.551153,37.489842,,,
461,KY,8,Cave Run Lake,KY8,-83.53333,38.11833,SAP                1,50520,0.001519904,-83.53355035,38.11983385,-83.53355035,38.11983385,,,
462,KY,9,Meldahl Pool,KY9,-84.17,38.79,SAP                3,-1,-1,-1,-1,-84.17,38.79,,,
463,LA,12,Bundick Lake,LA12,-93.09,30.733,CPL                3,52188,0.001702009,-93.08849549,30.73220421,-93.08849549,30.73220421,,,
464,LA,13,Caddo Lake,LA13,-93.91833,32.70667,CPL                2,52315,0.00419296,-93.91980989,32.71059312,-93.91980989,32.71059312,,,
465,LA,14,Cane River,LA14,-92.975,31.568,CPL                1,52503,0.001518478,-92.97348259,31.56794318,-92.97348259,31.56794318,,,
466,LA,15,Caney Lake,LA15,-92.499,32.218,CPL                3,51722,0.001058868,-92.49862143,32.21898888,-92.49862143,32.21898888,,,
467,LA,16,Choctaw Bayou,LA16,-92.173,31.089,CPL                3,-1,-1,-1,-1,-92.173,31.089,,,
468,LA,17,Cheniere,LA17,-92.182,32.456,CPL                3,-1,-1,-1,-1,-92.182,32.456,,,
469,LA,18,Chicot Lake,LA18,-92.269,30.828,CPL                1,-1,-1,-1,-1,-92.269,30.828,,,
470,LA,2,Bayou Bonne Idee,LA2,-91.714,32.662,CPL                4,52583,0.000938158,-91.71423018,32.66109052,-91.71423018,32.66109052,,,
471,LA,20,Cleco/Rodemacher,LA20,-92.717,31.382,CPL                1,52227,0.003009794,-92.71583885,31.37922321,-92.71583885,31.37922321,,,
472,LA,23,Corney Lake,LA23,-92.736,32.904,CPL                2,51774,0.004396879,-92.73183712,32.90541526,-92.73183712,32.90541526,,,
473,LA,24,Cotile Lake,LA24,-92.733,31.338,CPL                1,52227,0.002974254,-92.73492992,31.34026309,-92.73492992,31.34026309,,,
474,LA,25,Cross Lake,LA25,-93.803,32.515,CPL                2,-1,-1,-1,-1,-93.803,32.515,,,
475,LA,26,Cypress Bayou Reservoir (Cypress Lake),LA26,-93.664,32.652,CPL                2,51721,0.002567987,-93.6633832,32.65449281,-93.6633832,32.65449281,,,
476,LA,27,Black Bayou Reservoir (Black Bayou - Bossier),LA27,-93.668,32.648,CPL                2,52231,0.002089324,-93.66969353,32.64922361,-93.66969353,32.64922361,,,
477,LA,28,Flag Lake,LA28,-93.587,32.505,CPL                2,51298,0.000259723,-93.58721469,32.50485384,-93.58721469,32.50485384,,,
478,LA,29,Grand Bayou Reservoir,LA29,-93.214,31.998,CPL                3,51532,0.003451124,-93.21435018,32.00143331,-93.21435018,32.00143331,,,
479,LA,3,Cocodrie Lake,LA3,-92.382,31.001,CPL                3,52513,0.00024903,-92.38193164,31.00123946,-92.38193164,31.00123946,,,
480,LA,30,Iatt Lake,LA30,-92.66,31.555,CPL                1,52193,0.003281621,-92.65781709,31.5525497,-92.65781709,31.5525497,,,
481,LA,31,Bodcau,LA31,-93.498,32.95,CPL                3,-1,-1,-1,-1,-93.498,32.95,,,
482,LA,32,Indian Creek Lake,LA32,-92.46,31.128,CPL                1,-1,-1,-1,-1,-92.46,31.128,,,
483,LA,33,Ivan Lake,LA33,-93.495,32.831,CPL                2,52120,0.000501394,-93.49547431,32.83116256,-93.49547431,32.83116256,,,
484,LA,35,Red River Pool 2,LA35,-92.29333,31.18667,CPL                1,-1,-1,-1,-1,-92.29333,31.18667,,,
485,LA,36,Catahoula Lake,LA36,-91.86167,31.48333,CPL                1,-1,-1,-1,-1,-91.86167,31.48333,,,
486,LA,37,Black River,LA37,-91.86167,31.48333,CPL                1,-1,-1,-1,-1,-91.86167,31.48333,,,
487,LA,38,Kepler Lake,LA38,-93.153,32.317,CPL                2,52529,0.000966949,-93.15219934,32.31645784,-93.15219934,32.31645784,,,
488,LA,39,Kincaid Lake,LA39,-92.614,31.282,CPL                1,52617,6.33625E-05,-92.61403951,31.28204953,-92.61403951,31.28204953,,,
489,LA,40,Lake Bistineau,LA40,-93.427,32.327,CPL                2,-1,-1,-1,-1,-93.427,32.327,,,
490,LA,41,Lake Claiborne,LA41,-92.904,32.739,CPL                3,52047,0.001096809,-92.9045984,32.73808081,-92.9045984,32.73808081,,,
491,LA,42,Lake Martin,LA42,-91.906,30.222,CPL                1,-1,-1,-1,-1,-91.906,30.222,,,
492,LA,45,French Fork Old River,LA45,-91.97833,31.57833,CPL                1,51334,0.001478947,-91.97862997,31.57977821,-91.97862997,31.57977821,,,
493,LA,46,Anacoco Lake,LA46,-93.384,31.092,CPL                3,51783,0.000431777,-93.3841819,31.09160841,-93.3841819,31.09160841,,,
494,LA,47,Mill Creek Reservoir,LA47,-92.99,32.17,CPL                3,-1,-1,-1,-1,-92.99,32.17,,,
495,LA,48,Miller's Lake,LA48,-92.378,30.755,CPL                3,-1,-1,-1,-1,-92.378,30.755,,,
496,LA,49,Nantachie Lake,LA49,-92.785,31.604,CPL                1,52758,0.000842921,-92.78554587,31.6046423,-92.78554587,31.6046423,,,
497,LA,5,Bayou DeSiard,LA5,-92.12,32.554,CPL                4,52107,0.000357803,-92.12004103,32.55435544,-92.12004103,32.55435544,,,
498,LA,50,Poverty Point,LA50,-91.491,32.483,CPL                3,51916,0.004262852,-91.48918815,32.48685864,-91.48918815,32.48685864,,,
499,LA,51,Red River Pool 3,LA51,-92.68333,31.48333,CPL                1,51842,0.002292015,-92.68147178,31.48467177,-92.68147178,31.48467177,,,
500,LA,53,saline lake,LA53,-92.932,31.853,CPL                1,52752,0.001292959,-92.93173978,31.8542665,-92.93173978,31.8542665,,,
501,LA,54,Sibley Lake,LA54,-93.758,31.755,CPL                1,-1,-1,-1,-1,-93.758,31.755,,,
502,LA,55,Clear / Smithport Lake,LA55,-93.563,32.116,CPL                2,53033,0.000400822,-93.56260098,32.115962,-93.56260098,32.115962,,,
503,LA,56,Spanish Lake,LA56,-91.862,30.071,CPL                3,-1,-1,-1,-1,-91.862,30.071,,,
504,LA,57,Toledo Bend Reservoir,LA57,-93.5684,31.1857,CPL                3,-1,-1,-1,-1,-93.5684,31.1857,,,
505,LA,58,Turkey Creek,LA58,-91.771,31.905,CPL                3,-1,-1,-1,-1,-91.771,31.905,,,
506,LA,59,Bayou Nezpique,LA59,-92.479,30.829,CPL                3,-1,-1,-1,-1,-92.479,30.829,,,
507,LA,6,Black Bayou Lake at Hosston (Caddo Parish),LA6,-93.898,32.882,CPL                2,51830,0.001034727,-93.89698385,32.88219521,-93.89698385,32.88219521,,,
508,LA,60,Vernon Lake,LA60,-93.358,31.177,CPL                3,52079,0.001675559,-93.3580338,31.17867522,-93.3580338,31.17867522,,,
509,LA,61,Wallace Lake,LA61,-93.67,32.31667,CPL                2,53104,0.002109122,-93.67008742,32.31877731,-93.67008742,32.31877731,,,
510,LA,7,Black-Clear Lake,LA7,-92.952,31.855,CPL                1,52752,0.002207878,-92.94993837,31.8557902,-92.94993837,31.8557902,,,
511,MD,13,Prettyboy Reservoir,MD13,-76.7074,39.6196,SAP                4,53794,0.000470086,-76.70696851,39.61978653,-76.70696851,39.61978653,,,
512,MD,15,Savage River Reservoir,MD15,-79.13445,39.5075,SAP                1,53979,0.002047359,-79.13261001,39.50839783,-79.13261001,39.50839783,,,
513,MD,3,Conowingo Pool,MD3,-76.1735,39.661,SAP                3,53980,0.001252033,-76.17424646,39.65999482,-76.17424646,39.65999482,,,
514,MD,4,Deep Creek Lake,MD4,-79.3916,39.5091,SAP                4,53865,0.000117359,-79.39154367,39.50899704,-79.39154367,39.50899704,,,
515,MD,5,Jennings Randolph Lake,MD5,-79.07167,39.48022,SAP                1,54076,0.002096101,-79.07053175,39.48198012,-79.07053175,39.48198012,,,
516,MD,7,Little Seneca Lake,MD7,-77.3,39.185,SAP                4,-1,-1,-1,-1,-77.3,39.185,,,
517,MI,14,Barton Pond,MI14,-83.7543,42.3083,TPL                3,57563,3.52464E-05,-83.75427106,42.30827988,-83.75427106,42.30827988,,,
518,MN,102,Rabideau Lake,MN102,-94.5434,47.63176,UMW                1,59813,0.000193456,-94.54350577,47.63192198,-94.54350577,47.63192198,,,
519,MN,11,Boulder Lake Reservoir,MN11,-92.2,47.0517,UMW                1,60385,0.000396035,-92.19974421,47.05139765,-92.19974421,47.05139765,,,
520,MN,112,Big Sandy Lake,MN112,-93.31967,46.78792,UMW                1,59147,0.000105677,-93.31974198,46.78784263,-93.31974198,46.78784263,,,
521,MN,114,Mississippi River,MN114,-94.2,45.6167,UMW                1,59191,0.002361749,-94.20218502,45.61580358,-94.20218502,45.61580358,,,
522,MN,115,Big Sauk Lake,MN115,-94.95176,45.74027,UMW                1,59827,0.0001533,-94.95176576,45.74011681,-94.95176576,45.74011681,,,
523,MN,119,Mississippi River,MN119,-94.15,45.55,UMW                1,59191,0.002977177,-94.14719903,45.54899097,-94.14719903,45.54899097,,,
524,MN,124,Sylvan Lake,MN124,-94.3783,46.305,UMW                1,61089,0.000103765,-94.37821492,46.30505939,-94.37821492,46.30505939,,,
525,MN,128,Thomson,MN128,-92.4067,46.665,UMW                1,59293,0.001409213,-92.40529239,46.66506726,-92.40529239,46.66506726,,,
526,MN,145,Whiteface Reservoir,MN145,-92.1917,47.28,UMW                1,59828,0.000784549,-92.19146171,47.27925251,-92.19146171,47.27925251,,,
527,MN,149,Wild Rice,MN149,-92.1617,46.91,UMW                1,61456,0.000395367,-92.16158371,46.90962212,-92.16158371,46.90962212,,,
528,MN,154,Grindstone Reservoir,MN154,-93.007429,46.125218,UMW                1,61671,0.000195725,-93.0072333,46.12522084,-93.0072333,46.12522084,,,
529,MN,155,Bear Creek Reservoir,MN155,-92.314539,43.98948,UMW                1,60282,0.000776092,-92.3148915,43.98878858,-92.3148915,43.98878858,,,
530,MN,21,Horseshoe Chain of Lakes,MN21,-94.42285,45.4554,UMW                1,59041,0.000173434,-94.42301679,45.45535244,-94.42301679,45.45535244,,,
531,MN,36,Fish Lake Reservoir,MN36,-92.2783,46.9567,UMW                1,61542,6.45819E-06,-92.2782979,46.95670611,-92.2782979,46.95670611,,,
532,MN,52,Island Lake Reservoir,MN52,-92.225,46.9917,UMW                1,61807,2.69799E-05,-92.2249965,46.99167325,-92.2249965,46.99167325,,,
533,MN,57,Lake Byllesby,MN57,-92.9333,44.5167,TPL                1,61610,0.003969115,-92.93181965,44.51301728,-92.93181965,44.51301728,,,
534,MN,61,Mississippi River,MN61,-94.3678,45.9756,UMW                1,59191,0.000888939,-94.36691369,45.97553169,-94.36691369,45.97553169,,,
535,MN,7,Zebulon Pike Reservoir,MN7,-94.3583,45.86,UMW                1,59191,0.000577957,-94.35879352,45.85969922,-94.35879352,45.85969922,,,
536,MN,9,Blandin Reservoir,MN9,-93.53,47.2317,UMW                1,58885,0.000128516,-93.53000794,47.23182827,-93.53000794,47.23182827,,,
537,MN,94,Placid Lake,MN94,-94.485,46.315,UMW                1,61583,0.000364982,-94.48512987,46.31534109,-94.48512987,46.31534109,,,
538,MO,11,Duck Creek Pool #1,MO11,-90.10139,37.0225,CPL                1,-1,-1,-1,-1,-90.10139,37.0225,,,
539,MO,14,Edwin Pape Lake (Concordia),MO14,-93.5817,38.93336,TPL                3,-1,-1,-1,-1,-93.5817,38.93336,,,
540,MO,15,Fellows Lake,MO15,-93.23102,37.31481,SAP                1,62668,0.001003241,-93.23152796,37.31394486,-93.23152796,37.31394486,,,
541,MO,16,Forest Lake,MO16,-92.65822,40.16961,TPL                3,-1,-1,-1,-1,-92.65822,40.16961,,,
542,MO,18,Harrisonville City Lake,MO18,-94.32583,38.76444,TPL                3,-1,-1,-1,-1,-94.32583,38.76444,,,
543,MO,19,Truman Reservori,MO19,-93.40167,38.26667,SAP                3,-1,-1,-1,-1,-93.40167,38.26667,,,
544,MO,2,Alpine Lake,MO2,-91.08155,38.7492,TPL                1,-1,-1,-1,-1,-91.08155,38.7492,,,
545,MO,20,Hazel Creek Lake,MO20,-92.62907,40.29973,TPL                1,-1,-1,-1,-1,-92.62907,40.29973,,,
546,MO,21,Holden City Lake,MO21,-94.0348,38.76115,TPL                1,-1,-1,-1,-1,-94.0348,38.76115,,,
547,MO,22,Indian Hills,MO22,-91.4575,38.1075,SAP                4,63158,0.000443355,-91.45793331,38.10740617,-91.45793331,38.10740617,,,
548,MO,23,Lake Jacomo,MO23,-94.3079,38.99298,TPL                3,-1,-1,-1,-1,-94.3079,38.99298,,,
549,MO,24,Lake Lotawana,MO24,-94.2468,38.93564,TPL                3,63803,0.001256966,-94.24554374,38.93559797,-94.24554374,38.93559797,,,
550,MO,25,Lake Paho,MO25,-93.65619,40.3991,TPL                2,63412,0.001278014,-93.65511367,40.39978909,-93.65511367,40.39978909,,,
551,MO,26,Lake Springfield,MO26,-93.26366,37.1121,SAP                4,62347,0.000120963,-93.26356657,37.11202318,-93.26356657,37.11202318,,,
552,MO,27,Lake St. Louis,MO27,-90.7652,38.80179,TPL                1,63658,0.000962116,-90.76590699,38.80244256,-90.76590699,38.80244256,,,
553,MO,29,Lake Viking,MO29,-94.05677,39.9381,TPL                1,63436,0.000501152,-94.05692344,39.93857708,-94.05692344,39.93857708,,,
554,MO,3,Atkinson Lake,MO3,-94.04638,38.00633,TPL                2,63535,0.004077919,-94.04372,38.00942093,-94.04372,38.00942093,,,
555,MO,30,Lake Winnebago,MO30,-94.35561,38.81785,TPL                3,63866,2.56776E-05,-94.35563562,38.81785173,-94.35563562,38.81785173,,,
556,MO,35,Mississippi River Pool 24,MO35,-90.90108,39.37905,TPL                2,46715,0.004183245,-90.9038851,39.37594662,-90.9038851,39.37594662,,,
557,MO,36,Upper Mississippi River Pool 25,MO36,-90.68385,39.00617,TPL                2,46716,0.003820452,-90.68682108,39.00376823,-90.68682108,39.00376823,,,
558,MO,37,Sandy Slough,MO37,-90.70475,39.02296,TPL                2,-1,-1,-1,-1,-90.70475,39.02296,,,
559,MO,38,Long Branch Lake,MO38,-92.51333,39.75167,TPL                1,62630,0.000736601,-92.51374605,39.75227785,-92.51374605,39.75227785,,,
560,MO,39,Longview Lake,MO39,-94.46833,38.92667,TPL                3,62480,0.000144684,-94.46818603,38.92668437,-94.46818603,38.92668437,,,
561,MO,40,McDaniel Lake,MO40,-93.31439,37.29469,SAP                1,63095,0.0004103,-93.31419898,37.29432688,-93.31419898,37.29432688,,,
562,MO,41,Upper Mississippi River Pool 20,MO41,-91.5149,40.1433,TPL                2,46739,0.003549899,-91.51135304,40.14344437,-91.51135304,40.14344437,,,
563,MO,42,Upper Mississippi River Pool 21,MO42,-91.4288,39.903,TPL                2,46730,0.00290607,-91.4308437,39.90506605,-91.4308437,39.90506605,,,
564,MO,43,Upper Mississippi River Pool 22,MO43,-91.2487,39.6354,TPL                2,46719,0.003144119,-91.24615104,39.63724073,-91.24615104,39.63724073,,,
565,MO,44,Montrose Lake,MO44,-93.91695,38.30861,TPL                1,63849,0.00027934,-93.91681753,38.30836407,-93.91681753,38.30836407,,,
566,MO,45,Mozingo Lake,MO45,-94.77625,40.34748,TPL                3,-1,-1,-1,-1,-94.77625,40.34748,,,
567,MO,46,Lake Nehai,MO46,-92.89191,39.5904,TPL                3,-1,-1,-1,-1,-92.89191,39.5904,,,
568,MO,47,Lake of the Ozarks,MO47,-92.6248,38.2031,SAP                3,63364,0.000347974,-92.62457761,38.20336764,-92.62457761,38.20336764,,,
569,MO,48,Pomme de Terre,MO48,-93.32,37.90167,SAP                3,63657,0.002224995,-93.31930183,37.90378262,-93.31930183,37.90378262,,,
570,MO,5,Blue Springs Lake,MO5,-94.33833,39.01833,TPL                1,-1,-1,-1,-1,-94.33833,39.01833,,,
571,MO,50,Prairie Lee Lake,MO50,-94.33096,38.94431,TPL                1,-1,-1,-1,-1,-94.33096,38.94431,,,
572,MO,51,Raintree Lake,MO51,-94.38159,38.83459,TPL                3,63866,0.000978641,-94.38163797,38.83361254,-94.38163797,38.83361254,,,
573,MO,52,Smithville Reservoir,MO52,-94.555,39.39833,TPL                1,62440,0.000865616,-94.55497312,39.3991952,-94.55497312,39.3991952,,,
574,MO,56,Stockton Lake,MO56,-93.75833,37.69167,SAP                1,-1,-1,-1,-1,-93.75833,37.69167,,,
575,MO,58,Sugar Creek Lake,MO58,-92.47917,39.47361,TPL                3,63293,0.001779694,-92.47986816,39.47524704,-92.47986816,39.47524704,,,
576,MO,61,Table Rock Lake,MO61,-93.30833,36.595,SAP                1,63552,0.000820347,-93.30831787,36.59582026,-93.30831787,36.59582026,,,
577,MO,63,Thomas Hill Reservoir,MO63,-92.6445,39.55104,TPL                1,63861,0.001616232,-92.6436823,39.54964588,-92.6436823,39.54964588,,,
578,MO,64,Lake Niangua,MO64,-92.8517,37.9383,SAP                3,63245,0.000369829,-92.85194943,37.93802694,-92.85194943,37.93802694,,,
579,MO,65,Wappapello,MO65,-90.27982,36.93151,SAP                3,-1,-1,-1,-1,-90.27982,36.93151,,,
580,MO,7,Mark Twain Lake,MO7,-91.64491,39.52595,TPL                1,64045,0.001248623,-91.64445028,39.52478909,-91.64445028,39.52478909,,,
581,MO,8,Salt River Re-regulation Pool,MO8,-91.6498,39.5453,TPL                2,-1,-1,-1,-1,-91.6498,39.5453,,,
582,MO,9,Clearwater Lake,MO9,-90.77167,37.13667,SAP                3,62496,0.002727721,-90.77382994,37.13500413,-90.77382994,37.13500413,,,
583,MS,10,Bluff Lake,MS10,-88.783743,33.279496,CPL                3,-1,-1,-1,-1,-88.783743,33.279496,,,
584,MS,15,Elvis Presley Lake,MS15,-88.6583,34.2967,CPL                1,-1,-1,-1,-1,-88.6583,34.2967,,,
585,MS,16,Enid Lake,MS16,-89.82167,34.15833,CPL                4,-1,-1,-1,-1,-89.82167,34.15833,,,
586,MS,18,Lock C,MS18,-90.1926,33.0297,CPL                2,64356,0.001690942,-90.19107525,33.02896895,-90.19107525,33.02896895,,,
587,MS,2,Aberdeen Lake,MS2,-88.52,33.83,CPL                2,65184,0.000317007,-88.51969297,33.83007891,-88.51969297,33.83007891,,,
588,MS,20,Lock E,MS20,-88.365,34.46333,CPL                2,65712,0.000160916,-88.36504513,34.46348446,-88.36504513,34.46348446,,,
589,MS,21,Lock B,MS21,-88.425,34.065,CPL                2,65279,0.00041508,-88.42526996,34.06531529,-88.42526996,34.06531529,,,
590,MS,22,Grenada Lake,MS22,-89.77167,33.80833,CPL                4,65362,0.000507524,-89.77171564,33.80883547,-89.77171564,33.80883547,,,
591,MS,23,Bay Springs Reservoir,MS23,-88.325,34.525,CPL                1,65777,0.001195919,-88.32402529,34.52569294,-88.32402529,34.52569294,,,
592,MS,24,Columbus Lake,MS24,-88.49,33.51667,CPL                2,65559,0.001414743,-88.48859201,33.51680805,-88.48859201,33.51680805,,,
593,MS,25,Lock D,MS25,-88.408423,34.362553,CPL                2,65692,0.000485081,-88.40889582,34.36266139,-88.40889582,34.36266139,,,
594,MS,26,Kemper County Lake,MS26,-88.715,32.8067,CPL                1,64423,0.003183397,-88.71212656,32.80532984,-88.71212656,32.80532984,,,
595,MS,27,Lake Bill Waller,MS27,-89.71667,31.19,CPL                1,-1,-1,-1,-1,-89.71667,31.19,,,
596,MS,28,Lake Bogue Homa,MS28,-89.025,31.7033,CPL                1,64813,0.001018253,-89.02559145,31.70412887,-89.02559145,31.70412887,,,
597,MS,29,Lake Calling Panther,MS29,-90.4808,31.9708,CPL                1,64429,0.001008947,-90.48151991,31.97150689,-90.48151991,31.97150689,,,
598,MS,3,Lock A,MS3,-88.48892,34.012209,CPL                2,65336,0.000584464,-88.48855834,34.01174987,-88.48855834,34.01174987,,,
599,MS,33,Lake Lamar Bruce,MS33,-88.6694,34.3867,CPL                1,-1,-1,-1,-1,-88.6694,34.3867,,,
600,MS,35,Lake Lincoln,MS35,-90.3267,31.6783,CPL                1,-1,-1,-1,-1,-90.3267,31.6783,,,
601,MS,38,Loakfoma Lake,MS38,-88.778414,33.260686,CPL                3,-1,-1,-1,-1,-88.778414,33.260686,,,
602,MS,43,Okatibbee Reservoir,MS43,-88.79833,32.475,CPL                1,65650,0.001165019,-88.79716734,32.47492586,-88.79716734,32.47492586,,,
603,MS,44,Oktibbeha County Lake,MS44,-88.93166,33.505,CPL                2,-1,-1,-1,-1,-88.93166,33.505,,,
604,MS,46,Geiger Lake,MS46,-89.23833,31.13389,CPL                1,65479,0.00188821,-89.23967267,31.13256238,-89.23967267,31.13256238,,,
605,MS,47,Lake Tangipahoa,MS47,-90.5286,31.175,CPL                1,65332,0.00011403,-90.52870946,31.17503195,-90.52870946,31.17503195,,,
606,MS,48,Ross Barnett Reservoir,MS48,-90.06361,32.40222,CPL                1,65584,6.32601E-05,-90.06355033,32.402199,-90.06355033,32.402199,,,
607,MS,49,Sardis Lake,MS49,-89.7868,34.4,CPL                4,64815,0.000836882,-89.78638907,34.39927095,-89.78638907,34.39927095,,,
608,MS,53,Trace State Park,MS53,-88.895,34.2367,CPL                1,-1,-1,-1,-1,-88.895,34.2367,,,
609,MS,58,Whites Creek Lake,MS58,-89.2756,33.5536,CPL                3,-1,-1,-1,-1,-89.2756,33.5536,,,
610,MS,6,Arkabutla Lake,MS6,-90.12333,34.75667,CPL                4,65000,0.000885396,-90.1227404,34.75733053,-90.1227404,34.75733053,,,
611,MT,10,Cooney Reservoir,MT10,-109.2014,45.4499,NPL                2,68910,0.002733361,-109.202223,45.44729348,-109.202223,45.44729348,,,
612,MT,100,Yellow Water Reservoir,MT100,-108.4712,46.9023,NPL                2,69677,0.00046604,-108.47119,46.90276593,-108.47119,46.90276593,,,
613,MT,102,North Chinook Reservoir,MT102,-109.33063,48.773161,NPL                2,-1,-1,-1,-1,-109.33063,48.773161,,,
614,MT,103,Dodson Diversion Dam,MT103,-108.3099,48.41194,NPL                2,70479,0.000381657,-108.3098256,48.41156566,-108.3098256,48.41156566,,,
615,MT,14,Delmoe Lake,MT14,-112.3416,45.9843,WMT                2,68446,7.30349E-05,-112.3416417,45.98424001,-112.3416417,45.98424001,,,
616,MT,15,Dry Fork Reservoir,MT15,-109.2227,48.6644,NPL                1,-1,-1,-1,-1,-109.2227,48.6644,,,
617,MT,16,Eureka Reservoir,MT16,-112.3178,47.8784,NPL                1,69307,0.003233516,-112.3201719,47.87620235,-112.3201719,47.87620235,,,
618,MT,20,Frenchman Reservoir,MT20,-107.2243,48.9588,NPL                2,67022,0.00039089,-107.2246579,48.95864288,-107.2246579,48.95864288,,,
619,MT,21,Fresno Reservoir,MT21,-109.946,48.59951,NPL                1,70431,0.001853408,-109.9455606,48.60131057,-109.9455606,48.60131057,,,
620,MT,22,Gibson Reservoir,MT22,-112.7616,47.60138,NPL                1,69944,0.000528519,-112.7618734,47.60183229,-112.7618734,47.60183229,,,
621,MT,25,Hauser,MT25,-111.8863,46.7649,NPL                2,69767,0.000290887,-111.8864167,46.76463353,-111.8864167,46.76463353,,,
622,MT,26,Hebgen Reservoir,MT26,-111.3354,44.8623,WMT                1,69768,0.000218875,-111.335505,44.86210797,-111.335505,44.86210797,,,
623,MT,27,Helena Valley Regulating Reservoir,MT27,-111.8828,46.64132,WMT                2,-1,-1,-1,-1,-111.8828,46.64132,,,
624,MT,31,Holter,MT31,-112.0035,46.9913,NPL                2,68991,0.000711067,-112.0038176,46.99066378,-112.0038176,46.99066378,,,
625,MT,33,Hungry Horse Reservoir,MT33,-114.0126,48.34133,NPL                1,69511,0.000102366,-114.0126318,48.34123271,-114.0126318,48.34123271,,,
626,MT,35,Lake Frances,MT35,-112.2074,48.2629,NPL                1,-1,-1,-1,-1,-112.2074,48.2629,,,
627,MT,37,Lake Seventeen,MT37,-108.8669,48.0837,NPL                1,67917,0.002377939,-108.8684667,48.08191114,-108.8684667,48.08191114,,,
628,MT,42,Lake Koocanusa,MT42,-115.3083,48.41167,WMT                2,-1,-1,-1,-1,-115.3083,48.41167,,,
629,MT,47,Martinsdale Reservoir,MT47,-110.2681,46.452,NPL                2,-1,-1,-1,-1,-110.2681,46.452,,,
630,MT,60,Nelson Reservoir,MT60,-107.5196,48.5238,NPL                2,-1,-1,-1,-1,-107.5196,48.5238,,,
631,MT,61,Nevada Reservoir,MT61,-112.8107,46.8024,WMT                2,68912,3.51414E-05,-112.8106796,46.80242861,-112.8106796,46.80242861,,,
632,MT,62,Newlan Creek Reservoir,MT62,-110.9376,46.6363,NPL                1,69509,0.000317353,-110.9378485,46.63649742,-110.9378485,46.63649742,,,
633,MT,64,Nilan Reservoir,MT64,-112.5389,47.4869,NPL                1,-1,-1,-1,-1,-112.5389,47.4869,,,
634,MT,66,Noxon Reservoir,MT66,-115.7306,47.9597,WMT                1,66853,0.000715898,-115.7311005,47.9591881,-115.7311005,47.9591881,,,
635,MT,68,Pishkun Reservoir,MT68,-112.454,47.69225,NPL                1,-1,-1,-1,-1,-112.454,47.69225,,,
636,MT,7,Bynum Reservoir,MT7,-112.416,47.9648,NPL                1,-1,-1,-1,-1,-112.416,47.9648,,,
637,MT,8,Canyon Ferry,MT8,-111.7281,46.6486,WMT                2,69040,7.41809E-05,-111.7281497,46.6485449,-111.7281497,46.6485449,,,
638,MT,82,Thompson Falls Reservoir,MT82,-115.35,47.5916,WMT                1,67730,0.000932647,-115.3496416,47.59073898,-115.3496416,47.59073898,,,
639,MT,83,Tiber Reservoir,MT83,-111.0969,48.32194,NPL                1,69627,0.002395825,-111.0970987,48.32432757,-111.0970987,48.32432757,,,
640,MT,85,Tongue River Reservoir,MT85,-106.7668,45.1309,NPL                2,70356,0.003513562,-106.769674,45.13292121,-106.769674,45.13292121,,,
641,MT,9,Clark Canyon Reservoir,MT9,-112.8588,45.00024,WMT                2,67425,0.000320367,-112.8591094,45.00032293,-112.8591094,45.00032293,,,
642,MT,92,Painted Rocks Reservoir,MT92,-114.2814,45.7174,WMT                1,69203,0.000620629,-114.2807831,45.71746777,-114.2807831,45.71746777,,,
643,MT,94,Willow Creek Reservoir,MT94,-112.4293,47.54682,NPL                1,68640,0.000151407,-112.4294085,47.54671435,-112.4294085,47.54671435,,,
644,MT,98,Harrison Lake or Willow Creek Reservoir,MT98,-111.6997,45.7138,WMT                2,70371,4.83645E-05,-111.6996889,45.71375293,-111.6996889,45.71375293,,,
645,NC,100,Wiggins Mill Reservoir,NC100,-77.951825,35.692367,CPL                3,71389,0.000347275,-77.9521553,35.69225975,-77.9521553,35.69225975,,,
646,NC,101,Buckhorn Reservoir,NC101,-78.124394,35.695086,SAP                4,71513,0.001222636,-78.12531448,35.6942813,-78.12531448,35.6942813,,,
647,NC,102,Mayo Reservoir,NC102,-78.87125,36.527571,SAP                4,71065,0.001048115,-78.87177805,36.52666562,-78.87177805,36.52666562,,,
648,NC,103,Lake Reidsville,NC103,-79.665828,36.284343,SAP                4,71011,0.000563129,-79.66593899,36.28379092,-79.66593899,36.28379092,,,
649,NC,104,Cane Creek Reservoir,NC104,-80.69194,34.835,SAP                1,71670,0.000399227,-80.69215927,34.83533362,-80.69215927,34.83533362,,,
650,NC,11,Lake Chatuge,NC11,-83.791,35.018,SAP                1,71817,0.003762559,-83.78816563,35.01552549,-83.78816563,35.01552549,,,
651,NC,12,Lake Cheoah,NC12,-83.9366,35.4484,SAP                1,71891,0.000948925,-83.93702609,35.44755212,-83.93702609,35.44755212,,,
652,NC,13,High Point City Lake,NC13,-79.945,35.995,SAP                4,71986,0.00017171,-79.94484554,35.994925,-79.94484554,35.994925,,,
653,NC,14,Farmer Lake,NC14,-79.36139,36.38472,SAP                4,71518,0.003435167,-79.35983877,36.38778497,-79.35983877,36.38778497,,,
654,NC,15,Lake Norman,NC15,-80.9587,35.435,SAP                1,71766,0.000690792,-80.95802852,35.4348378,-80.95802852,35.4348378,,,
655,NC,17,Falls of the Neuse Reservoir,NC17,-78.58167,35.94167,SAP                4,70645,0.000261973,-78.58176319,35.94142516,-78.58176319,35.94142516,,,
656,NC,18,Lake Fontana,NC18,-83.805,35.45333,SAP                1,71691,0.000181821,-83.80482026,35.45330255,-83.80482026,35.45330255,,,
657,NC,19,Lake Gaston,NC19,-77.811,36.5019,SAP                4,70855,0.002933702,-77.81141489,36.49899578,-77.81141489,36.49899578,,,
658,NC,2,Apalachia,NC2,-84.295,35.17,SAP                1,72072,0.001985178,-84.29521158,35.16802613,-84.29521158,35.16802613,,,
659,NC,26,High Rock Lake,NC26,-80.2349,35.6007,SAP                1,70809,0.00080265,-80.23564725,35.60040696,-80.23564725,35.60040696,,,
660,NC,28,Lake Hiwassee,NC28,-84.178,35.152,SAP                1,71369,0.000696939,-84.17758765,35.15143813,-84.17758765,35.15143813,,,
661,NC,3,B. Everett Jordan,NC3,-79.07,35.65667,SAP                4,71941,0.001416598,-79.06874362,35.65732441,-79.06874362,35.65732441,,,
662,NC,31,Lake Benson,NC31,-78.611,35.662,SAP                4,70624,0.000276079,-78.61117663,35.66178782,-78.61117663,35.66178782,,,
663,NC,32,Lake Brandt,NC32,-79.8381,36.1711,SAP                4,70917,0.001634118,-79.8389288,36.17250834,-79.8389288,36.17250834,,,
664,NC,33,Lake Holt,NC33,-78.772,36.167,SAP                4,71479,0.001500862,-78.7730632,36.16805933,-78.7730632,36.16805933,,,
665,NC,34,Lake Cammack,NC34,-79.412,36.177,SAP                4,70686,0.000299539,-79.4117028,36.17696268,-79.4117028,36.17696268,,,
666,NC,35,Lake Crabtree,NC35,-78.78222,35.83639,SAP                4,71592,3.78948E-05,-78.78222398,35.83642769,-78.78222398,35.83642769,,,
667,NC,37,Hyco Reservoir,NC37,-79.047,36.513,SAP                1,71437,8.02804E-05,-79.04699106,36.51307978,-79.04699106,36.51307978,,,
668,NC,4,Graham Mebane Reservoir,NC4,-79.32972,36.09972,SAP                4,71480,0.000436346,-79.3298042,36.09929186,-79.3298042,36.09929186,,,
669,NC,41,Lake Mackintosh,NC41,-79.50417,36.04028,SAP                4,71341,5.81474E-05,-79.50411224,36.04028668,-79.50411224,36.04028668,,,
670,NC,42,Lake Michie,NC42,-78.83,36.151,SAP                1,71791,0.000187525,-78.83018577,36.15102557,-78.83018577,36.15102557,,,
671,NC,44,Thom-a-lex,NC44,-80.193,35.871,SAP                1,71404,0.000100053,-80.19296564,35.87109397,-80.19296564,35.87109397,,,
672,NC,46,Lake Wheeler,NC46,-78.694,35.695,SAP                4,70896,0.00061772,-78.69422272,35.69442383,-78.69422272,35.69442383,,,
673,NC,49,Little River Reservoir,NC49,-78.86789,36.11222,SAP                1,71324,0.000197084,-78.86787481,36.1120235,-78.86787481,36.1120235,,,
674,NC,5,Bear Lake,NC5,-83.0724,35.2414,SAP                1,70626,0.000212794,-83.0724995,35.2412119,-83.0724995,35.2412119,,,
675,NC,52,Lookout Shoals Reservoir,NC52,-81.0908,35.7575,SAP                1,71750,9.17107E-06,-81.09079279,35.75750567,-81.09079279,35.75750567,,,
676,NC,54,Moss Lake,NC54,-81.457,35.276,SAP                4,71554,1.39934E-05,-81.45701398,35.27600055,-81.45701398,35.27600055,,,
677,NC,55,Mountain Island Lake,NC55,-80.9852,35.3359,SAP                1,71298,0.002026208,-80.98718765,35.33629339,-80.98718765,35.33629339,,,
678,NC,56,Lake Nantahala,NC56,-83.6538,35.1992,SAP                1,70614,0.001163676,-83.65318659,35.19821113,-83.65318659,35.19821113,,,
679,NC,59,Oak Hollow Lake,NC59,-79.986,36.012,SAP                4,-1,-1,-1,-1,-79.986,36.012,,,
680,NC,60,Lake Hickory,NC60,-81.1922,35.8214,SAP                1,71588,0.000838634,-81.1923295,35.82222858,-81.1923295,35.82222858,,,
681,NC,63,Lake James,NC63,-81.848,35.734,SAP                1,-1,-1,-1,-1,-81.848,35.734,,,
682,NC,68,Randleman Reservoir,NC68,-79.8113,35.836,SAP                4,71986,0.001866143,-79.81154511,35.83415002,-79.81154511,35.83415002,,,
683,NC,69,Lake Rhodhiss,NC69,-81.4381,35.7742,SAP                1,71291,0.000673296,-81.43839017,35.77359244,-81.43839017,35.77359244,,,
684,NC,7,Blewett Falls,NC7,-79.8798,34.988,SAP                1,70837,0.000304291,-79.87985473,34.98770067,-79.87985473,34.98770067,,,
685,NC,70,Roanoke Rapids Lake,NC70,-77.6733,36.4817,SAP                3,70855,0.002139873,-77.67305929,36.47957371,-77.67305929,36.47957371,,,
686,NC,71,Lake Reece,NC71,-79.97,35.681,SAP                4,70646,7.3545E-05,-79.96995264,35.68105627,-79.96995264,35.68105627,,,
687,NC,73,Salem Lake,NC73,-80.192,36.096,SAP                1,70950,0.001167561,-80.19196772,36.09483289,-80.19196772,36.09483289,,,
688,NC,74,Lake Santeetlah,NC74,-83.8767,35.3772,SAP                1,71858,0.000277396,-83.87695005,35.37707991,-83.87695005,35.37707991,,,
689,NC,76,Shearon Harris Reservoir,NC76,-78.95611,35.63333,SAP                4,-1,-1,-1,-1,-78.95611,35.63333,,,
690,NC,78,Tar River Reservoir,NC78,-77.885,35.899,CPL                3,71082,0.00013957,-77.88507374,35.8991185,-77.88507374,35.8991185,,,
691,NC,79,Lake Glenville,NC79,-83.1525,35.1962,SAP                1,70709,0.000150261,-83.15262164,35.19628822,-83.15262164,35.19628822,,,
692,NC,82,Lake Tillery,NC82,-80.0658,35.2067,SAP                1,70655,0.00081434,-80.06643032,35.20618439,-80.06643032,35.20618439,,,
693,NC,83,Lake Townsend,NC83,-79.732,36.189,SAP                4,71182,0.000286997,-79.73212679,36.18925747,-79.73212679,36.18925747,,,
694,NC,86,Tuckertown Lake,NC86,-80.1764,35.4851,SAP                1,71162,0.000375415,-80.17650556,35.48473973,-80.17650556,35.48473973,,,
695,NC,87,W. Kerr Scott Reservoir,NC87,-81.23333,36.15,SAP                1,-1,-1,-1,-1,-81.23333,36.15,,,
696,NC,9,Cane Creek Lake,NC9,-80.688415,34.836702,SAP                1,71670,0.000529614,-80.68866911,34.83716667,-80.68866911,34.83716667,,,
697,NC,95,Badin Lake,NC95,-80.0931,35.4197,SAP                1,71162,0.000410223,-80.09280265,35.4199826,-80.09280265,35.4199826,,,
698,NC,97,Lake Twitty,NC97,-80.479367,35.035443,SAP                1,-1,-1,-1,-1,-80.479367,35.035443,,,
699,NC,98,Belews Lake,NC98,-80.026188,36.316785,SAP                1,71666,0.00344982,-80.02956173,36.31750555,-80.02956173,36.31750555,,,
700,NC,99,Lake Adger,NC99,-82.203062,35.338304,SAP                1,71355,0.000436776,-82.20310771,35.33786962,-82.20310771,35.33786962,,,
701,ND,19,Lake Sakakawea,ND19,-101.4317,47.50167,NPL                1,-1,-1,-1,-1,-101.4317,47.50167,,,
702,ND,24,Harvey Dam,ND24,-99.92217,47.76226,TPL                1,72136,0.0004533,-99.92229959,47.76269438,-99.92229959,47.76269438,,,
703,ND,45,Mt. Carmel Dam,ND45,-98.28019,48.90768,TPL                1,73258,0.002309638,-98.27980247,48.90995689,-98.27980247,48.90995689,,,
704,ND,46,Nelson Lake,ND46,-101.2064,47.06629,NPL                2,72263,0.001455317,-101.2074073,47.06523965,-101.2074073,47.06523965,,,
705,ND,49,Painted Woods Lake,ND49,-100.9634,47.20931,NPL                2,72449,0.001093706,-100.9630074,47.20828919,-100.9630074,47.20828919,,,
706,ND,5,Bowman-Haley Dam,ND5,-103.2467,45.98167,NPL                2,72395,0.003090337,-103.2470185,45.98474388,-103.2470185,45.98474388,,,
707,ND,55,Lake Audubon,ND55,-101.2673,41.607,SPL                1,-1,-1,-1,-1,-101.2673,41.607,,,
708,ND,58,Sweet Briar Dam,ND58,-101.2579,46.86369,NPL                2,72159,0.002545331,-101.2603587,46.86434831,-101.2603587,46.86434831,,,
709,ND,59,"Lake Darling, Upper Souris NWR",ND59,-101.6,48.48333,TPL                3,-1,-1,-1,-1,-101.6,48.48333,,,
710,ND,61,Heart Butte Reservoir,ND61,-101.860099,46.609887,NPL                2,73266,0.000372739,-101.8600744,46.60951507,-101.8600744,46.60951507,,,
711,ND,62,Patterson Lake,ND62,-102.852044,46.860778,NPL                2,73542,0.000307784,-102.8522331,46.86102083,-102.8522331,46.86102083,,,
712,ND,63,Garrison Diversion Unit Canal Lakes,ND63,-100.808258,47.537601,NPL                2,-1,-1,-1,-1,-100.808258,47.537601,,,
713,ND,8,Coal Mine Lake,ND8,-100.1366,47.6791,TPL                1,72136,0.001062039,-100.1365736,47.67803829,-100.1365736,47.67803829,,,
714,NE,12,Enders Reservoir,NE12,-101.521,40.435,SPL                3,-1,-1,-1,-1,-101.521,40.435,,,
715,NE,14,Jeffrey Reservoir,NE14,-100.4034,40.9598,SPL                3,-1,-1,-1,-1,-100.4034,40.9598,,,
716,NE,17,Lake McConaughy,NE17,-101.6667,41.2367,SPL                3,-1,-1,-1,-1,-101.6667,41.2367,,,
717,NE,23,Merritt,NE23,-100.8725,42.63363,SPL                3,74118,0.000974547,-100.8734618,42.63347287,-100.8734618,42.63347287,,,
718,NE,26,Oliver,NE26,-103.8105,41.22355,SPL                3,74684,0.000953956,-103.8109183,41.22269263,-103.8109183,41.22269263,,,
719,NE,27,Zorinsky Reservoir,NE27,-96.16,41.22,TPL                2,-1,-1,-1,-1,-96.16,41.22,,,
720,NE,28,Wehrspann Reservoir,NE28,-96.055,41.33833,TPL                2,74688,0.000521624,-96.05456114,41.33804805,-96.05456114,41.33804805,,,
721,NE,29,Glenn Cunningham Reservoir,NE29,-96.052709,41.339249,TPL                2,74688,0.000794767,-96.05335249,41.33971545,-96.05335249,41.33971545,,,
722,NE,30,Pawnee,NE30,-96.865,40.84,TPL                2,74148,0.001328859,-96.86592375,40.83904473,-96.86592375,40.83904473,,,
723,NE,34,Sutherland Reservoir,NE34,-101.1267,41.1367,SPL                5,-1,-1,-1,-1,-101.1267,41.1367,,,
724,NE,36,Wagon Train Reservoir,NE36,-96.58333,40.62,TPL                2,74742,0.000589515,-96.58327015,40.62058647,-96.58327015,40.62058647,,,
725,NE,37,Whitney Reservoir,NE37,-103.3158,42.77964,NPL                2,-1,-1,-1,-1,-103.3158,42.77964,,,
726,NE,38,Willow Creek,NE38,-97.55473,42.18044,TPL                1,73938,0.001264768,-97.55435253,42.17923287,-97.55435253,42.17923287,,,
727,NE,39,Yankee Hill,NE39,-96.78333,40.73167,TPL                2,-1,-1,-1,-1,-96.78333,40.73167,,,
728,NE,40,Swanson,NE40,-101.097765,40.160771,SPL                3,74244,0.0018194,-101.0974623,40.15897696,-101.0974623,40.15897696,,,
729,NE,41,Harry Strunk,NE41,-100.227613,40.388135,SPL                3,73774,0.00042355,-100.2279792,40.38792218,-100.2279792,40.38792218,,,
730,NE,42,Hugh Butler Reservoir,NE42,-100.671873,40.358187,SPL                3,73907,0.001225713,-100.6727324,40.35906093,-100.6727324,40.35906093,,,
731,NE,43,Lake Maloney,NE43,-100.779147,41.042398,SPL                3,-1,-1,-1,-1,-100.779147,41.042398,,,
732,NE,44,Lewis & Clark,NE44,-97.649975,42.849541,TPL                1,75559,0.000887473,-97.64971557,42.84869229,-97.64971557,42.84869229,,,
733,NE,45,Calamus Reservoir,NE45,-99.247427,41.858311,SPL                3,74767,0.001211504,-99.24811379,41.85731297,-99.24811379,41.85731297,,,
734,NE,46,Lake Babcock,NE46,-97.359645,41.482701,SPL                5,-1,-1,-1,-1,-97.359645,41.482701,,,
735,NE,47,Lake Minatare,NE47,-103.49174,41.933508,SPL                3,-1,-1,-1,-1,-103.49174,41.933508,,,
736,NE,48,Box Butte Reservoir,NE48,-103.090568,42.45956,SPL                3,74310,0.000991126,-103.090676,42.45857478,-103.090676,42.45857478,,,
737,NE,49,Bruning Pit,NE49,-97.484032,40.345448,SPL                5,74442,0.002017238,-97.48325259,40.34358742,-97.48325259,40.34358742,,,
738,NE,50,Johnson Lake,NE50,-99.854529,40.694045,SPL                5,-1,-1,-1,-1,-99.854529,40.694045,,,
739,NE,6,Bluestem Reservoir,NE6,-96.79,40.62833,TPL                2,74548,0.001410584,-96.78917516,40.62947428,-96.78917516,40.62947428,,,
740,NE,7,Branched Oak,NE7,-96.85333,40.97,TPL                2,74059,0.000318034,-96.85334596,40.97031763,-96.85334596,40.97031763,,,
741,NH,14,Baxter Lake,NH14,-71.0433,43.3213,NAP                1,-1,-1,-1,-1,-71.0433,43.3213,,,
742,NM,14,Conchas Reservoir,NM14,-104.19,35.40333,SPL                3,77638,0.00038561,-104.1898998,35.40295765,-104.1898998,35.40295765,,,
743,NM,15,Costilla Reservoir,NM15,-105.2783,36.875,WMT                2,77508,0.000999156,-105.279018,36.87569485,-105.279018,36.87569485,,,
744,NM,18,Eagle Nest Lake,NM18,-105.2296,36.5318,WMT                2,77539,0.000153102,-105.2296243,36.53195116,-105.2296243,36.53195116,,,
745,NM,20,Elephant Butte,NM20,-107.1919,33.15409,XER                3,77059,0.000929518,-107.1924616,33.15483067,-107.1924616,33.15483067,,,
746,NM,28,Maxwell Lake 12,NM28,-104.5907,36.5588, ,-1,-1,-1,-1,-104.5907,36.5588,,,
747,NM,29,Maxwell Lake 13,NM29,-104.5862,36.5765, ,-1,-1,-1,-1,-104.5862,36.5765,,,
748,NM,30,Maxwell Lake 2,NM30,-104.6336,36.60452,SPL                3,-1,-1,-1,-1,-104.6336,36.60452,,,
749,NM,4,Avalon,NM4,-104.2528,32.492,XER                3,77147,0.002754113,-104.2534078,32.4946862,-104.2534078,32.4946862,,,
750,NM,42,Santa rosa,NM42,-104.6883,35.02833,SPL                3,76596,0.000677212,-104.688859,35.02871234,-104.688859,35.02871234,,,
751,NM,43,Springer Lake,NM43,-104.6482,36.4164, ,77992,0.000768334,-104.6488063,36.41592805,-104.6488063,36.41592805,,,
752,NM,44,Storrie Reservoir,NM44,-105.2281,35.6649,SPL                3,-1,-1,-1,-1,-105.2281,35.6649,,,
753,NM,45,Stubblefield Reservoir,NM45,-104.6667,36.5667, ,-1,-1,-1,-1,-104.6667,36.5667,,,
754,NM,46,Sumner,NM46,-104.3898,34.60744,SPL                3,76715,0.000413446,-104.3894045,34.60756036,-104.3894045,34.60756036,,,
755,NM,47,Ute Lake,NM47,-103.4452,35.34949,SPL                1,-1,-1,-1,-1,-103.4452,35.34949,,,
756,NM,48,Lake Alice,NM48,-104.385654,36.954522,WMT                2,78114,3.13706E-05,-104.385623,36.95452711,-104.385623,36.95452711,,,
757,NM,49,Lake Maloya,NM49,-104.374201,36.9861,WMT                2,78114,0.000746458,-104.3734565,36.98615463,-104.3734565,36.98615463,,,
758,NM,50,Cabresto Lake,NM50,-105.497451,36.748367,WMT                2,-1,-1,-1,-1,-105.497451,36.748367,,,
759,NM,51,Maxwell Lake 14,NM51,-104.566934,36.582004, ,-1,-1,-1,-1,-104.566934,36.582004,,,
760,NM,52,Clayton Lake,NM52,-103.298872,36.576697,SPL                1,77028,0.000297028,-103.2988539,36.57640052,-103.2988539,36.57640052,,,
761,NM,6,Brantley,NM6,-104.3781,32.54783,XER                3,77143,0.000586073,-104.3783957,32.54732401,-104.3783957,32.54732401,,,
762,NM,7,Caballo,NM7,-107.293,32.89623,XER                3,76729,0.000644553,-107.2923592,32.89629927,-107.2923592,32.89629927,,,
763,NV,14,Harmon,NV14,-118.6294,39.4753,XER                3,-1,-1,-1,-1,-118.6294,39.4753,,,
764,NV,21,Marlette Lake,NV21,-119.9064,39.1728,WMT                1,-1,-1,-1,-1,-119.9064,39.1728,,,
765,NV,22,Bassett Lake,NV22,-114.8197,39.4297,XER                1,-1,-1,-1,-1,-114.8197,39.4297,,,
766,NV,25,Old River,NV25,-118.7686,39.5244,XER                3,-1,-1,-1,-1,-118.7686,39.5244,,,
767,NV,26,S-line,NV26,-118.6964,39.5128,XER                3,-1,-1,-1,-1,-118.6964,39.5128,,,
768,NV,28,Rye Patch Reservoir,NV28,-118.2997,40.6097,XER                1,-1,-1,-1,-1,-118.2997,40.6097,,,
769,NV,29,Pit-Taylor,NV29,-118.2697,40.64,XER                1,-1,-1,-1,-1,-118.2697,40.64,,,
770,NV,30,Ruby Lake National Wildlife Refuge,NV30,-115.4617,40.1828,XER                1,-1,-1,-1,-1,-115.4617,40.1828,,,
771,NV,34,South Fork Reservoir,NV34,-115.78,40.6797,XER                1,-1,-1,-1,-1,-115.78,40.6797,,,
772,NV,39,Upper Pahranagat Reservoir,NV39,-115.15,37.31667,XER                1,-1,-1,-1,-1,-115.15,37.31667,,,
773,NV,41,Wildhorse Reservoir,NV41,-115.8418,41.68675,XER                1,80205,0.001796654,-115.8423163,41.68502912,-115.8423163,41.68502912,,,
774,NV,42,Willow Creek Reservoir,NV42,-116.5361,41.21,XER                1,-1,-1,-1,-1,-116.5361,41.21,,,
775,NV,43,Wilson Reservoir,NV43,-116.3497,41.6797,XER                1,78757,0.000795303,-116.3496541,41.67890602,-116.3496541,41.67890602,,,
776,NV,44,Lahontan,NV44,-119.172535,39.377568,XER                3,79022,0.000149719,-119.1725552,39.37771634,-119.1725552,39.37771634,,,
